[{"origin":"栃木県大田原市","pref":"栃木県","name":"大田原市","code":"09210","pop":72087,"lat":36.87107,"lon":140.01546,"did":595,"airport":0,"high150":0,"night":14621,"bvlos":8777,"drop":165615,"hazmat":162365,"low30":165992,"event":0,"high_risk":174509,"monitoring":174595,"moored":27,"assist_n":174689,"assist_sum":4306275,"score_sum":1197918,"total_all":174753,"total_valid":174748,"hokatsu":5},{"origin":"栃木県宇都宮市","pref":"栃木県","name":"宇都宮市","code":"09201","pop":518757,"lat":36.55511,"lon":139.88281,"did":8418,"airport":7019,"high150":191,"night":1321,"bvlos":1051,"drop":92045,"hazmat":84711,"low30":29537,"event":8,"high_risk":93749,"monitoring":95524,"moored":24,"assist_n":95676,"assist_sum":2997509,"score_sum":602832,"total_all":96271,"total_valid":96101,"hokatsu":170},{"origin":"広島県福山市","pref":"広島県","name":"福山市","code":"34207","pop":460930,"lat":34.48593,"lon":133.36234,"did":90519,"airport":1,"high150":1,"night":1971,"bvlos":52675,"drop":24,"hazmat":27,"low30":90572,"event":9,"high_risk":90580,"monitoring":89258,"moored":3,"assist_n":91107,"assist_sum":93080,"score_sum":381069,"total_all":91844,"total_valid":91415,"hokatsu":429},{"origin":"栃木県那須塩原市","pref":"栃木県","name":"那須塩原市","code":"09213","pop":115210,"lat":36.96169,"lon":140.04605,"did":594,"airport":0,"high150":0,"night":6797,"bvlos":1191,"drop":48314,"hazmat":48154,"low30":47530,"event":407,"high_risk":49685,"monitoring":49976,"moored":0,"assist_n":49196,"assist_sum":4384560,"score_sum":354505,"total_all":50424,"total_valid":50154,"hokatsu":270},{"origin":"宮崎県宮崎市","pref":"宮崎県","name":"宮崎市","code":"45201","pop":401339,"lat":31.90768,"lon":131.42024,"did":2781,"airport":30810,"high150":17,"night":1915,"bvlos":2016,"drop":32734,"hazmat":32316,"low30":34391,"event":2,"high_risk":35528,"monitoring":34384,"moored":43,"assist_n":35786,"assist_sum":1230757,"score_sum":335431,"total_all":37134,"total_valid":36051,"hokatsu":1083},{"origin":"岡山県苫田郡鏡野町","pref":"岡山県","name":"苫田郡鏡野町","code":"33606","pop":12062,"lat":35.09177,"lon":133.93303,"did":146,"airport":0,"high150":0,"night":14992,"bvlos":15039,"drop":33109,"hazmat":33103,"low30":475,"event":0,"high_risk":33510,"monitoring":33322,"moored":0,"assist_n":33624,"assist_sum":67029,"score_sum":259465,"total_all":33661,"total_valid":33645,"hokatsu":16},{"origin":"栃木県真岡市","pref":"栃木県","name":"真岡市","code":"09209","pop":78190,"lat":36.44043,"lon":140.01343,"did":282,"airport":0,"high150":2397,"night":20894,"bvlos":117,"drop":24313,"hazmat":24210,"low30":1617,"event":0,"high_risk":24595,"monitoring":27032,"moored":49,"assist_n":27070,"assist_sum":606826,"score_sum":194566,"total_all":27163,"total_valid":27126,"hokatsu":37},{"origin":"鹿児島県鹿児島市","pref":"鹿児島県","name":"鹿児島市","code":"46201","pop":593128,"lat":31.59679,"lon":130.55734,"did":23366,"airport":49,"high150":18,"night":20841,"bvlos":1627,"drop":11,"hazmat":10,"low30":2152,"event":0,"high_risk":23436,"monitoring":23447,"moored":29,"assist_n":23635,"assist_sum":66805,"score_sum":94066,"total_all":24041,"total_valid":23950,"hokatsu":91},{"origin":"滋賀県近江八幡市","pref":"滋賀県","name":"近江八幡市","code":"25204","pop":81122,"lat":35.12822,"lon":136.09784,"did":309,"airport":0,"high150":4,"night":610,"bvlos":103,"drop":18631,"hazmat":4650,"low30":17840,"event":61,"high_risk":18780,"monitoring":18804,"moored":14,"assist_n":18956,"assist_sum":26509,"score_sum":89796,"total_all":19038,"total_valid":19031,"hokatsu":7},{"origin":"三重県伊勢市","pref":"三重県","name":"伊勢市","code":"24203","pop":122765,"lat":34.48751,"lon":136.70929,"did":3879,"airport":14190,"high150":0,"night":276,"bvlos":334,"drop":17168,"hazmat":2975,"low30":3935,"event":0,"high_risk":18198,"monitoring":18119,"moored":0,"assist_n":18622,"assist_sum":158342,"score_sum":115912,"total_all":19086,"total_valid":19012,"hokatsu":74},{"origin":"福井県福井市","pref":"福井県","name":"福井市","code":"18201","pop":262328,"lat":36.06412,"lon":136.21945,"did":7053,"airport":1,"high150":47,"night":1752,"bvlos":1389,"drop":10089,"hazmat":9003,"low30":3621,"event":2,"high_risk":16821,"monitoring":12101,"moored":20,"assist_n":16865,"assist_sum":44267,"score_sum":81384,"total_all":17814,"total_valid":17802,"hokatsu":12},{"origin":"千葉県成田市","pref":"千葉県","name":"成田市","code":"12211","pop":132906,"lat":35.7766,"lon":140.31879,"did":13807,"airport":889,"high150":724,"night":13165,"bvlos":13060,"drop":1296,"hazmat":1152,"low30":14614,"event":12,"high_risk":15697,"monitoring":16915,"moored":18,"assist_n":17666,"assist_sum":27329,"score_sum":106149,"total_all":24065,"total_valid":17958,"hokatsu":6107},{"origin":"栃木県鹿沼市","pref":"栃木県","name":"鹿沼市","code":"09205","pop":94033,"lat":36.56712,"lon":139.7451,"did":381,"airport":0,"high150":0,"night":478,"bvlos":672,"drop":15024,"hazmat":14672,"low30":15385,"event":0,"high_risk":15602,"monitoring":15769,"moored":2,"assist_n":15803,"assist_sum":1701622,"score_sum":107535,"total_all":16079,"total_valid":15985,"hokatsu":94},{"origin":"大阪府堺市西区","pref":"大阪府","name":"堺市西区","code":"27144","pop":135375,"lat":34.53506,"lon":135.46402,"did":15142,"airport":33,"high150":0,"night":5217,"bvlos":3254,"drop":0,"hazmat":0,"low30":3378,"event":0,"high_risk":15142,"monitoring":3381,"moored":0,"assist_n":15100,"assist_sum":15153,"score_sum":50703,"total_all":15154,"total_valid":15143,"hokatsu":11},{"origin":"栃木県日光市","pref":"栃木県","name":"日光市","code":"09206","pop":77661,"lat":36.71986,"lon":139.6982,"did":1881,"airport":0,"high150":9,"night":3327,"bvlos":1796,"drop":11440,"hazmat":10819,"low30":13197,"event":1,"high_risk":13375,"monitoring":12970,"moored":349,"assist_n":14412,"assist_sum":529286,"score_sum":94001,"total_all":14774,"total_valid":14722,"hokatsu":52},{"origin":"富山県下新川郡入善町","pref":"富山県","name":"下新川郡入善町","code":"16342","pop":23839,"lat":36.93358,"lon":137.50212,"did":509,"airport":0,"high150":58,"night":8078,"bvlos":130,"drop":13051,"hazmat":12942,"low30":13115,"event":0,"high_risk":13191,"monitoring":13117,"moored":1,"assist_n":13210,"assist_sum":161713,"score_sum":108644,"total_all":13366,"total_valid":13349,"hokatsu":17},{"origin":"愛媛県松山市","pref":"愛媛県","name":"松山市","code":"38201","pop":511192,"lat":33.83916,"lon":132.76555,"did":12303,"airport":142,"high150":26,"night":2219,"bvlos":12055,"drop":813,"hazmat":769,"low30":12858,"event":0,"high_risk":13180,"monitoring":5336,"moored":13,"assist_n":13461,"assist_sum":37240,"score_sum":71236,"total_all":13703,"total_valid":13538,"hokatsu":165},{"origin":"秋田県大仙市","pref":"秋田県","name":"大仙市","code":"05212","pop":77657,"lat":39.45309,"lon":140.47545,"did":5773,"airport":0,"high150":0,"night":263,"bvlos":138,"drop":11653,"hazmat":10708,"low30":10457,"event":0,"high_risk":11806,"monitoring":11797,"moored":81,"assist_n":12175,"assist_sum":77642,"score_sum":89888,"total_all":12250,"total_valid":12238,"hokatsu":12},{"origin":"埼玉県比企郡鳩山町","pref":"埼玉県","name":"比企郡鳩山町","code":"11348","pop":13560,"lat":35.98147,"lon":139.33411,"did":22,"airport":0,"high150":0,"night":11390,"bvlos":3816,"drop":62,"hazmat":62,"low30":11402,"event":0,"high_risk":11464,"monitoring":11470,"moored":0,"assist_n":1465,"assist_sum":1615,"score_sum":42230,"total_all":11479,"total_valid":11478,"hokatsu":1},{"origin":"栃木県芳賀郡芳賀町","pref":"栃木県","name":"芳賀郡芳賀町","code":"09345","pop":14961,"lat":36.54821,"lon":140.0582,"did":38,"airport":0,"high150":0,"night":10762,"bvlos":10,"drop":11415,"hazmat":11381,"low30":11415,"event":0,"high_risk":11448,"monitoring":11790,"moored":1,"assist_n":11806,"assist_sum":655625,"score_sum":101423,"total_all":11827,"total_valid":11811,"hokatsu":16},{"origin":"石川県小松市","pref":"石川県","name":"小松市","code":"17203","pop":106216,"lat":36.40836,"lon":136.44559,"did":10147,"airport":9608,"high150":0,"night":434,"bvlos":548,"drop":10643,"hazmat":778,"low30":1301,"event":0,"high_risk":11400,"monitoring":11438,"moored":117,"assist_n":11607,"assist_sum":32156,"score_sum":86646,"total_all":11659,"total_valid":11642,"hokatsu":17},{"origin":"静岡県富士宮市","pref":"静岡県","name":"富士宮市","code":"22207","pop":128105,"lat":35.22198,"lon":138.62166,"did":10700,"airport":0,"high150":40,"night":9648,"bvlos":10110,"drop":419,"hazmat":101,"low30":11144,"event":0,"high_risk":11233,"monitoring":1913,"moored":1,"assist_n":12129,"assist_sum":23080,"score_sum":73700,"total_all":12339,"total_valid":12268,"hokatsu":71},{"origin":"大分県宇佐市","pref":"大分県","name":"宇佐市","code":"44211","pop":52771,"lat":33.53197,"lon":131.34955,"did":1328,"airport":0,"high150":0,"night":215,"bvlos":9458,"drop":1171,"hazmat":1158,"low30":10700,"event":0,"high_risk":10699,"monitoring":1379,"moored":1,"assist_n":10720,"assist_sum":38069,"score_sum":39689,"total_all":10775,"total_valid":10755,"hokatsu":20},{"origin":"東京都西東京市","pref":"東京都","name":"西東京市","code":"13229","pop":207388,"lat":35.7255,"lon":139.53816,"did":10663,"airport":1,"high150":0,"night":29,"bvlos":10139,"drop":2,"hazmat":2,"low30":10640,"event":0,"high_risk":10665,"monitoring":10650,"moored":0,"assist_n":10583,"assist_sum":10654,"score_sum":52317,"total_all":10682,"total_valid":10666,"hokatsu":16},{"origin":"大分県大分市","pref":"大分県","name":"大分市","code":"44201","pop":475614,"lat":33.23952,"lon":131.60938,"did":10192,"airport":2,"high150":16389,"night":5341,"bvlos":5712,"drop":103,"hazmat":53,"low30":10170,"event":0,"high_risk":10279,"monitoring":19415,"moored":5,"assist_n":19870,"assist_sum":24495,"score_sum":85912,"total_all":20119,"total_valid":20057,"hokatsu":62},{"origin":"愛知県名古屋市瑞穂区","pref":"愛知県","name":"名古屋市瑞穂区","code":"23108","pop":108332,"lat":35.13144,"lon":136.93495,"did":10049,"airport":0,"high150":0,"night":54,"bvlos":99,"drop":0,"hazmat":0,"low30":283,"event":0,"high_risk":10049,"monitoring":9993,"moored":0,"assist_n":9995,"assist_sum":15288,"score_sum":20687,"total_all":10053,"total_valid":10049,"hokatsu":4},{"origin":"静岡県静岡市葵区","pref":"静岡県","name":"静岡市葵区","code":"22101","pop":249297,"lat":34.97514,"lon":138.38326,"did":9902,"airport":0,"high150":68,"night":377,"bvlos":521,"drop":7,"hazmat":7,"low30":7666,"event":0,"high_risk":9960,"monitoring":9322,"moored":3,"assist_n":10988,"assist_sum":31278,"score_sum":29444,"total_all":11299,"total_valid":11199,"hokatsu":100},{"origin":"熊本県阿蘇郡西原村","pref":"熊本県","name":"阿蘇郡西原村","code":"43432","pop":6426,"lat":32.83472,"lon":130.90303,"did":563,"airport":9794,"high150":71,"night":497,"bvlos":17,"drop":549,"hazmat":549,"low30":549,"event":0,"high_risk":9898,"monitoring":9552,"moored":2,"assist_n":9965,"assist_sum":10485,"score_sum":35521,"total_all":10045,"total_valid":10045,"hokatsu":0},{"origin":"静岡県島田市","pref":"静岡県","name":"島田市","code":"22209","pop":95719,"lat":34.83642,"lon":138.17606,"did":9004,"airport":469,"high150":468,"night":7946,"bvlos":7977,"drop":33,"hazmat":33,"low30":9020,"event":0,"high_risk":9496,"monitoring":9777,"moored":1,"assist_n":9843,"assist_sum":10289,"score_sum":61415,"total_all":10090,"total_valid":10087,"hokatsu":3},{"origin":"富山県富山市","pref":"富山県","name":"富山市","code":"16201","pop":413938,"lat":36.69598,"lon":137.21346,"did":2710,"airport":546,"high150":28,"night":4266,"bvlos":1630,"drop":7217,"hazmat":5376,"low30":8580,"event":1,"high_risk":9491,"monitoring":9163,"moored":121,"assist_n":9861,"assist_sum":48505,"score_sum":65266,"total_all":10869,"total_valid":10622,"hokatsu":247},{"origin":"栃木県佐野市","pref":"栃木県","name":"佐野市","code":"09204","pop":116228,"lat":36.3086,"lon":139.59314,"did":1254,"airport":0,"high150":1,"night":851,"bvlos":949,"drop":8020,"hazmat":7996,"low30":8828,"event":6,"high_risk":9217,"monitoring":9350,"moored":0,"assist_n":9343,"assist_sum":764224,"score_sum":62992,"total_all":9541,"total_valid":9456,"hokatsu":85},{"origin":"千葉県袖ケ浦市","pref":"千葉県","name":"袖ケ浦市","code":"12229","pop":63883,"lat":35.42995,"lon":139.95435,"did":2112,"airport":275,"high150":0,"night":7293,"bvlos":8596,"drop":63,"hazmat":61,"low30":2347,"event":175,"high_risk":9053,"monitoring":9299,"moored":0,"assist_n":9405,"assist_sum":72331,"score_sum":39721,"total_all":9478,"total_valid":9472,"hokatsu":6},{"origin":"北海道旭川市","pref":"北海道","name":"旭川市","code":"01204","pop":329306,"lat":43.7708,"lon":142.36479,"did":650,"airport":140,"high150":0,"night":519,"bvlos":537,"drop":8278,"hazmat":2510,"low30":2462,"event":0,"high_risk":8952,"monitoring":9095,"moored":10,"assist_n":9025,"assist_sum":935594,"score_sum":38658,"total_all":9386,"total_valid":9372,"hokatsu":14},{"origin":"熊本県菊池郡菊陽町","pref":"熊本県","name":"菊池郡菊陽町","code":"43404","pop":43337,"lat":32.86251,"lon":130.82866,"did":8417,"airport":31,"high150":0,"night":8528,"bvlos":8557,"drop":2,"hazmat":0,"low30":8582,"event":0,"high_risk":8627,"monitoring":496,"moored":1,"assist_n":8518,"assist_sum":8846,"score_sum":59685,"total_all":8696,"total_valid":8660,"hokatsu":36},{"origin":"栃木県那須郡那須町","pref":"栃木県","name":"那須郡那須町","code":"09407","pop":23956,"lat":37.01977,"lon":140.121,"did":106,"airport":0,"high150":8,"night":5085,"bvlos":109,"drop":8213,"hazmat":8198,"low30":5655,"event":0,"high_risk":8346,"monitoring":8415,"moored":0,"assist_n":8578,"assist_sum":360450,"score_sum":65504,"total_all":8656,"total_valid":8616,"hokatsu":40},{"origin":"新潟県十日町市","pref":"新潟県","name":"十日町市","code":"15210","pop":49820,"lat":37.12759,"lon":138.75571,"did":327,"airport":0,"high150":4,"night":7795,"bvlos":275,"drop":7920,"hazmat":7912,"low30":563,"event":2,"high_risk":8260,"monitoring":987,"moored":0,"assist_n":8300,"assist_sum":12615,"score_sum":64863,"total_all":8407,"total_valid":8343,"hokatsu":64},{"origin":"栃木県さくら市","pref":"栃木県","name":"さくら市","code":"09214","pop":44513,"lat":36.6853,"lon":139.96648,"did":335,"airport":1,"high150":0,"night":119,"bvlos":57,"drop":8099,"hazmat":7967,"low30":8524,"event":12,"high_risk":8229,"monitoring":8258,"moored":0,"assist_n":8752,"assist_sum":143162,"score_sum":57759,"total_all":8778,"total_valid":8778,"hokatsu":0},{"origin":"岩手県八幡平市","pref":"岩手県","name":"八幡平市","code":"03214","pop":24023,"lat":39.95651,"lon":141.07112,"did":173,"airport":0,"high150":12,"night":7436,"bvlos":6654,"drop":1308,"hazmat":1183,"low30":7933,"event":0,"high_risk":7969,"monitoring":7918,"moored":0,"assist_n":1567,"assist_sum":4392,"score_sum":43956,"total_all":8067,"total_valid":8038,"hokatsu":29},{"origin":"新潟県上越市","pref":"新潟県","name":"上越市","code":"15222","pop":188047,"lat":37.14787,"lon":138.23604,"did":1956,"airport":0,"high150":18,"night":4064,"bvlos":2715,"drop":6043,"hazmat":4845,"low30":5062,"event":1,"high_risk":7726,"monitoring":7736,"moored":6,"assist_n":8298,"assist_sum":17463,"score_sum":55233,"total_all":9094,"total_valid":9046,"hokatsu":48},{"origin":"富山県南砺市","pref":"富山県","name":"南砺市","code":"16210","pop":47937,"lat":36.58805,"lon":136.91951,"did":1046,"airport":0,"high150":1,"night":1619,"bvlos":467,"drop":6484,"hazmat":3036,"low30":6921,"event":0,"high_risk":7340,"monitoring":9310,"moored":0,"assist_n":9408,"assist_sum":115907,"score_sum":41747,"total_all":9869,"total_valid":9866,"hokatsu":3},{"origin":"和歌山県和歌山市","pref":"和歌山県","name":"和歌山市","code":"30201","pop":356729,"lat":34.23051,"lon":135.17081,"did":6899,"airport":0,"high150":14,"night":791,"bvlos":1981,"drop":124,"hazmat":33,"low30":2726,"event":1,"high_risk":7267,"monitoring":7094,"moored":35,"assist_n":7135,"assist_sum":7935,"score_sum":22568,"total_all":11134,"total_valid":7380,"hokatsu":3754},{"origin":"愛知県名古屋市名東区","pref":"愛知県","name":"名古屋市名東区","code":"23115","pop":164755,"lat":35.17586,"lon":137.01024,"did":7100,"airport":0,"high150":0,"night":28,"bvlos":113,"drop":0,"hazmat":0,"low30":7094,"event":0,"high_risk":7100,"monitoring":7068,"moored":4,"assist_n":7046,"assist_sum":14227,"score_sum":21576,"total_all":7131,"total_valid":7100,"hokatsu":31},{"origin":"山口県美祢市","pref":"山口県","name":"美祢市","code":"35213","pop":23247,"lat":34.16667,"lon":131.2057,"did":269,"airport":0,"high150":2,"night":272,"bvlos":6689,"drop":204,"hazmat":149,"low30":7240,"event":0,"high_risk":7000,"monitoring":630,"moored":0,"assist_n":7509,"assist_sum":22878,"score_sum":22763,"total_all":7561,"total_valid":7536,"hokatsu":25},{"origin":"静岡県富士市","pref":"静岡県","name":"富士市","code":"22210","pop":245392,"lat":35.16138,"lon":138.67632,"did":6744,"airport":4,"high150":199,"night":3888,"bvlos":4345,"drop":205,"hazmat":158,"low30":6734,"event":2,"high_risk":6893,"monitoring":7094,"moored":4,"assist_n":6748,"assist_sum":8774,"score_sum":38189,"total_all":7755,"total_valid":7693,"hokatsu":62},{"origin":"福井県大野市","pref":"福井県","name":"大野市","code":"18205","pop":31286,"lat":35.98056,"lon":136.48769,"did":1133,"airport":0,"high150":10,"night":2735,"bvlos":325,"drop":5789,"hazmat":3643,"low30":5122,"event":0,"high_risk":6893,"monitoring":7650,"moored":612,"assist_n":8797,"assist_sum":35767,"score_sum":41824,"total_all":8842,"total_valid":8833,"hokatsu":9},{"origin":"岩手県花巻市","pref":"岩手県","name":"花巻市","code":"03205","pop":93193,"lat":39.38861,"lon":141.11685,"did":694,"airport":1422,"high150":163,"night":3623,"bvlos":428,"drop":6184,"hazmat":5172,"low30":6245,"event":0,"high_risk":6640,"monitoring":7157,"moored":1,"assist_n":7118,"assist_sum":18424,"score_sum":54395,"total_all":7405,"total_valid":7362,"hokatsu":43},{"origin":"岡山県岡山市南区","pref":"岡山県","name":"岡山市南区","code":"33104","pop":167828,"lat":34.59977,"lon":133.91956,"did":1091,"airport":1985,"high150":15,"night":1020,"bvlos":223,"drop":6234,"hazmat":2033,"low30":1897,"event":0,"high_risk":6630,"monitoring":6403,"moored":277,"assist_n":6762,"assist_sum":25815,"score_sum":37351,"total_all":6919,"total_valid":6811,"hokatsu":108},{"origin":"青森県青森市","pref":"青森県","name":"青森市","code":"02201","pop":275192,"lat":40.82236,"lon":140.74731,"did":2595,"airport":252,"high150":150,"night":3454,"bvlos":1399,"drop":5101,"hazmat":2996,"low30":6456,"event":0,"high_risk":6630,"monitoring":5934,"moored":22,"assist_n":6931,"assist_sum":111945,"score_sum":46699,"total_all":7199,"total_valid":6998,"hokatsu":201},{"origin":"大阪府高槻市","pref":"大阪府","name":"高槻市","code":"27207","pop":352698,"lat":34.8461,"lon":135.61722,"did":6518,"airport":1,"high150":10,"night":69,"bvlos":194,"drop":47,"hazmat":0,"low30":6515,"event":2,"high_risk":6573,"monitoring":805,"moored":29,"assist_n":6640,"assist_sum":7249,"score_sum":20243,"total_all":6738,"total_valid":6721,"hokatsu":17},{"origin":"千葉県山武郡横芝光町","pref":"千葉県","name":"山武郡横芝光町","code":"12410","pop":22075,"lat":35.66561,"lon":140.50439,"did":4944,"airport":168,"high150":0,"night":258,"bvlos":245,"drop":5889,"hazmat":5779,"low30":5983,"event":0,"high_risk":6126,"monitoring":6156,"moored":6,"assist_n":6210,"assist_sum":27122,"score_sum":52385,"total_all":6313,"total_valid":6219,"hokatsu":94},{"origin":"佐賀県杵島郡白石町","pref":"佐賀県","name":"杵島郡白石町","code":"41425","pop":22051,"lat":33.18108,"lon":130.14349,"did":533,"airport":26,"high150":11,"night":2568,"bvlos":1385,"drop":5627,"hazmat":5306,"low30":4838,"event":14,"high_risk":6072,"monitoring":6229,"moored":0,"assist_n":6258,"assist_sum":43445,"score_sum":46723,"total_all":6412,"total_valid":6371,"hokatsu":41},{"origin":"石川県白山市","pref":"石川県","name":"白山市","code":"17210","pop":110408,"lat":36.51443,"lon":136.56583,"did":1628,"airport":0,"high150":2,"night":835,"bvlos":790,"drop":5100,"hazmat":4604,"low30":5572,"event":0,"high_risk":6012,"monitoring":5405,"moored":14,"assist_n":6553,"assist_sum":11706,"score_sum":41194,"total_all":6651,"total_valid":6604,"hokatsu":47},{"origin":"栃木県栃木市","pref":"栃木県","name":"栃木市","code":"09203","pop":155549,"lat":36.38242,"lon":139.73412,"did":3292,"airport":0,"high150":237,"night":1021,"bvlos":989,"drop":4751,"hazmat":4399,"low30":5647,"event":0,"high_risk":5864,"monitoring":5970,"moored":36,"assist_n":6152,"assist_sum":82876,"score_sum":44175,"total_all":6329,"total_valid":6240,"hokatsu":89},{"origin":"長崎県諫早市","pref":"長崎県","name":"諫早市","code":"42204","pop":133852,"lat":32.84421,"lon":130.0536,"did":2060,"airport":174,"high150":91,"night":1320,"bvlos":902,"drop":4042,"hazmat":4027,"low30":5539,"event":0,"high_risk":5764,"monitoring":5369,"moored":2,"assist_n":5913,"assist_sum":21143,"score_sum":39014,"total_all":6102,"total_valid":5965,"hokatsu":137},{"origin":"青森県弘前市","pref":"青森県","name":"弘前市","code":"02202","pop":168466,"lat":40.60297,"lon":140.464,"did":4688,"airport":0,"high150":0,"night":471,"bvlos":243,"drop":1600,"hazmat":1516,"low30":5370,"event":88,"high_risk":5677,"monitoring":5172,"moored":0,"assist_n":5710,"assist_sum":9044,"score_sum":25610,"total_all":5770,"total_valid":5758,"hokatsu":12},{"origin":"岐阜県揖斐郡大野町","pref":"岐阜県","name":"揖斐郡大野町","code":"21403","pop":22041,"lat":35.47068,"lon":136.62764,"did":5441,"airport":0,"high150":5018,"night":98,"bvlos":105,"drop":524,"hazmat":519,"low30":458,"event":0,"high_risk":5655,"monitoring":5554,"moored":0,"assist_n":6062,"assist_sum":6877,"score_sum":24911,"total_all":6095,"total_valid":6071,"hokatsu":24},{"origin":"大阪府枚方市","pref":"大阪府","name":"枚方市","code":"27210","pop":397289,"lat":34.81446,"lon":135.65063,"did":2033,"airport":12,"high150":0,"night":1006,"bvlos":3443,"drop":17,"hazmat":4,"low30":4940,"event":0,"high_risk":5474,"monitoring":3545,"moored":45,"assist_n":5340,"assist_sum":5869,"score_sum":18003,"total_all":5521,"total_valid":5499,"hokatsu":22},{"origin":"愛知県豊田市","pref":"愛知県","name":"豊田市","code":"23211","pop":422330,"lat":35.08234,"lon":137.15622,"did":4000,"airport":0,"high150":65,"night":1869,"bvlos":2502,"drop":452,"hazmat":346,"low30":5228,"event":15,"high_risk":5353,"monitoring":6597,"moored":30,"assist_n":8414,"assist_sum":11767,"score_sum":24509,"total_all":9641,"total_valid":9024,"hokatsu":617},{"origin":"静岡県焼津市","pref":"静岡県","name":"焼津市","code":"22212","pop":136845,"lat":34.86691,"lon":138.32326,"did":5238,"airport":18,"high150":0,"night":3559,"bvlos":3592,"drop":97,"hazmat":62,"low30":5283,"event":0,"high_risk":5293,"monitoring":5575,"moored":1,"assist_n":5744,"assist_sum":9678,"score_sum":30592,"total_all":6037,"total_valid":5988,"hokatsu":49},{"origin":"佐賀県佐賀市","pref":"佐賀県","name":"佐賀市","code":"41201","pop":233301,"lat":33.26354,"lon":130.30084,"did":1485,"airport":280,"high150":4,"night":1180,"bvlos":850,"drop":3955,"hazmat":2715,"low30":3355,"event":8,"high_risk":5289,"monitoring":5574,"moored":16,"assist_n":6155,"assist_sum":27228,"score_sum":31251,"total_all":6347,"total_valid":6234,"hokatsu":113},{"origin":"宮城県登米市","pref":"宮城県","name":"登米市","code":"04212","pop":76037,"lat":38.69186,"lon":141.18771,"did":352,"airport":0,"high150":0,"night":470,"bvlos":335,"drop":4902,"hazmat":4643,"low30":4938,"event":0,"high_risk":5253,"monitoring":5205,"moored":38,"assist_n":5356,"assist_sum":16455,"score_sum":35887,"total_all":5433,"total_valid":5427,"hokatsu":6},{"origin":"山口県山陽小野田市","pref":"山口県","name":"山陽小野田市","code":"35216","pop":60326,"lat":34.00309,"lon":131.18179,"did":173,"airport":1,"high150":9,"night":243,"bvlos":160,"drop":5026,"hazmat":5022,"low30":2854,"event":0,"high_risk":5238,"monitoring":5266,"moored":1,"assist_n":5323,"assist_sum":28549,"score_sum":34171,"total_all":5407,"total_valid":5363,"hokatsu":44},{"origin":"島根県出雲市","pref":"島根県","name":"出雲市","code":"32203","pop":172775,"lat":35.36692,"lon":132.75471,"did":727,"airport":232,"high150":0,"night":428,"bvlos":702,"drop":4328,"hazmat":3040,"low30":2218,"event":0,"high_risk":5142,"monitoring":5071,"moored":2,"assist_n":5393,"assist_sum":18906,"score_sum":28732,"total_all":5623,"total_valid":5564,"hokatsu":59},{"origin":"新潟県長岡市","pref":"新潟県","name":"長岡市","code":"15202","pop":266936,"lat":37.44659,"lon":138.85123,"did":1405,"airport":1,"high150":294,"night":2120,"bvlos":1214,"drop":3651,"hazmat":3318,"low30":3494,"event":0,"high_risk":4911,"monitoring":4922,"moored":20,"assist_n":5373,"assist_sum":15174,"score_sum":34470,"total_all":5610,"total_valid":5581,"hokatsu":29},{"origin":"福井県坂井市","pref":"福井県","name":"坂井市","code":"18210","pop":88481,"lat":36.1669,"lon":136.23129,"did":1418,"airport":759,"high150":68,"night":1272,"bvlos":169,"drop":4217,"hazmat":3454,"low30":2603,"event":0,"high_risk":4885,"monitoring":5185,"moored":25,"assist_n":5114,"assist_sum":11106,"score_sum":33747,"total_all":5402,"total_valid":5371,"hokatsu":31},{"origin":"茨城県桜川市","pref":"茨城県","name":"桜川市","code":"08231","pop":39122,"lat":36.32727,"lon":140.09048,"did":116,"airport":0,"high150":1,"night":85,"bvlos":91,"drop":4691,"hazmat":4542,"low30":221,"event":0,"high_risk":4807,"monitoring":4960,"moored":12,"assist_n":4987,"assist_sum":300438,"score_sum":28506,"total_all":5009,"total_valid":4999,"hokatsu":10},{"origin":"秋田県南秋田郡大潟村","pref":"秋田県","name":"南秋田郡大潟村","code":"05368","pop":3011,"lat":40.01779,"lon":139.96007,"did":1674,"airport":24,"high150":150,"night":13,"bvlos":16,"drop":4390,"hazmat":3565,"low30":3547,"event":0,"high_risk":4777,"monitoring":4557,"moored":0,"assist_n":4900,"assist_sum":31546,"score_sum":31190,"total_all":4938,"total_valid":4938,"hokatsu":0},{"origin":"愛知県岡崎市","pref":"愛知県","name":"岡崎市","code":"23202","pop":384654,"lat":34.95481,"lon":137.173,"did":3891,"airport":0,"high150":669,"night":938,"bvlos":1782,"drop":553,"hazmat":497,"low30":3879,"event":12,"high_risk":4745,"monitoring":4788,"moored":37,"assist_n":5594,"assist_sum":6838,"score_sum":21601,"total_all":5977,"total_valid":5943,"hokatsu":34},{"origin":"埼玉県比企郡吉見町","pref":"埼玉県","name":"比企郡吉見町","code":"11347","pop":18192,"lat":36.03985,"lon":139.45374,"did":2768,"airport":0,"high150":0,"night":4479,"bvlos":4534,"drop":46,"hazmat":45,"low30":4605,"event":0,"high_risk":4608,"monitoring":4692,"moored":0,"assist_n":4685,"assist_sum":4973,"score_sum":28440,"total_all":4761,"total_valid":4741,"hokatsu":20},{"origin":"岐阜県岐阜市","pref":"岐阜県","name":"岐阜市","code":"21201","pop":402557,"lat":35.4233,"lon":136.76065,"did":4292,"airport":1,"high150":611,"night":583,"bvlos":779,"drop":109,"hazmat":23,"low30":4384,"event":0,"high_risk":4572,"monitoring":5090,"moored":19,"assist_n":5650,"assist_sum":6709,"score_sum":17313,"total_all":6817,"total_valid":6496,"hokatsu":321},{"origin":"神奈川県綾瀬市","pref":"神奈川県","name":"綾瀬市","code":"14218","pop":83913,"lat":35.43716,"lon":139.42635,"did":4536,"airport":29,"high150":3,"night":4484,"bvlos":4501,"drop":3688,"hazmat":3687,"low30":4546,"event":0,"high_risk":4562,"monitoring":4548,"moored":1,"assist_n":4530,"assist_sum":13396,"score_sum":53806,"total_all":4801,"total_valid":4563,"hokatsu":238},{"origin":"佐賀県神埼市","pref":"佐賀県","name":"神埼市","code":"41210","pop":31022,"lat":33.31073,"lon":130.37306,"did":300,"airport":0,"high150":0,"night":2361,"bvlos":184,"drop":4236,"hazmat":3634,"low30":3219,"event":0,"high_risk":4404,"monitoring":4636,"moored":7,"assist_n":4673,"assist_sum":11933,"score_sum":32519,"total_all":4689,"total_valid":4677,"hokatsu":12},{"origin":"石川県輪島市","pref":"石川県","name":"輪島市","code":"17204","pop":24608,"lat":37.39056,"lon":136.89919,"did":4113,"airport":0,"high150":48,"night":3416,"bvlos":3942,"drop":205,"hazmat":146,"low30":4245,"event":32,"high_risk":4368,"monitoring":1604,"moored":2,"assist_n":5031,"assist_sum":6586,"score_sum":28368,"total_all":5836,"total_valid":5163,"hokatsu":673},{"origin":"愛知県一宮市","pref":"愛知県","name":"一宮市","code":"23203","pop":380073,"lat":35.30401,"lon":136.80234,"did":4227,"airport":0,"high150":188,"night":191,"bvlos":289,"drop":313,"hazmat":218,"low30":4402,"event":0,"high_risk":4326,"monitoring":3273,"moored":2,"assist_n":5215,"assist_sum":5696,"score_sum":15785,"total_all":5578,"total_valid":5526,"hokatsu":52},{"origin":"北海道函館市","pref":"北海道","name":"函館市","code":"01202","pop":251084,"lat":41.76871,"lon":140.72911,"did":4225,"airport":28,"high150":0,"night":167,"bvlos":542,"drop":4,"hazmat":0,"low30":4241,"event":0,"high_risk":4280,"monitoring":3576,"moored":5,"assist_n":4928,"assist_sum":5220,"score_sum":14205,"total_all":4996,"total_valid":4959,"hokatsu":37},{"origin":"沖縄県豊見城市","pref":"沖縄県","name":"豊見城市","code":"47212","pop":64612,"lat":26.16103,"lon":127.66888,"did":4183,"airport":4060,"high150":0,"night":4105,"bvlos":4131,"drop":0,"hazmat":0,"low30":143,"event":4032,"high_risk":4197,"monitoring":4232,"moored":0,"assist_n":4276,"assist_sum":20488,"score_sum":41193,"total_all":4287,"total_valid":4278,"hokatsu":9},{"origin":"北海道江別市","pref":"北海道","name":"江別市","code":"01217","pop":121056,"lat":43.10366,"lon":141.5361,"did":3020,"airport":0,"high150":0,"night":3217,"bvlos":3595,"drop":554,"hazmat":334,"low30":3362,"event":0,"high_risk":4193,"monitoring":3894,"moored":0,"assist_n":4177,"assist_sum":174543,"score_sum":25690,"total_all":4360,"total_valid":4284,"hokatsu":76},{"origin":"群馬県前橋市","pref":"群馬県","name":"前橋市","code":"10201","pop":332149,"lat":36.38941,"lon":139.06349,"did":1122,"airport":0,"high150":0,"night":380,"bvlos":702,"drop":3007,"hazmat":149,"low30":1157,"event":0,"high_risk":4181,"monitoring":4046,"moored":18,"assist_n":3957,"assist_sum":5077,"score_sum":15033,"total_all":4542,"total_valid":4359,"hokatsu":183},{"origin":"茨城県下妻市","pref":"茨城県","name":"下妻市","code":"08210","pop":42521,"lat":36.18452,"lon":139.96738,"did":382,"airport":0,"high150":0,"night":393,"bvlos":699,"drop":3434,"hazmat":3345,"low30":875,"event":0,"high_risk":4163,"monitoring":4292,"moored":1,"assist_n":4323,"assist_sum":65442,"score_sum":24160,"total_all":4353,"total_valid":4342,"hokatsu":11},{"origin":"茨城県筑西市","pref":"茨城県","name":"筑西市","code":"08227","pop":100753,"lat":36.30711,"lon":139.98306,"did":328,"airport":0,"high150":15,"night":336,"bvlos":118,"drop":3922,"hazmat":3745,"low30":1083,"event":1,"high_risk":4156,"monitoring":4429,"moored":2,"assist_n":4515,"assist_sum":75873,"score_sum":25679,"total_all":4556,"total_valid":4553,"hokatsu":3},{"origin":"滋賀県東近江市","pref":"滋賀県","name":"東近江市","code":"25213","pop":112819,"lat":35.1126,"lon":136.20763,"did":384,"airport":9,"high150":214,"night":692,"bvlos":510,"drop":3653,"hazmat":3523,"low30":1404,"event":0,"high_risk":4113,"monitoring":4817,"moored":24,"assist_n":4892,"assist_sum":12327,"score_sum":26559,"total_all":5036,"total_valid":5018,"hokatsu":18},{"origin":"栃木県小山市","pref":"栃木県","name":"小山市","code":"09208","pop":166666,"lat":36.31448,"lon":139.80013,"did":496,"airport":0,"high150":176,"night":3437,"bvlos":3651,"drop":266,"hazmat":188,"low30":3718,"event":0,"high_risk":4059,"monitoring":4302,"moored":4,"assist_n":1105,"assist_sum":2109,"score_sum":20600,"total_all":4615,"total_valid":4602,"hokatsu":13},{"origin":"山口県下関市","pref":"山口県","name":"下関市","code":"35201","pop":255051,"lat":33.95783,"lon":130.94145,"did":1697,"airport":159,"high150":136,"night":1256,"bvlos":1303,"drop":2109,"hazmat":859,"low30":3354,"event":87,"high_risk":4050,"monitoring":3278,"moored":162,"assist_n":4107,"assist_sum":9275,"score_sum":21606,"total_all":4504,"total_valid":4323,"hokatsu":181},{"origin":"長崎県松浦市","pref":"長崎県","name":"松浦市","code":"42208","pop":21271,"lat":33.34102,"lon":129.70905,"did":167,"airport":0,"high150":6,"night":43,"bvlos":3915,"drop":92,"hazmat":60,"low30":4042,"event":0,"high_risk":4046,"monitoring":4107,"moored":0,"assist_n":4155,"assist_sum":4808,"score_sum":12760,"total_all":4226,"total_valid":4222,"hokatsu":4},{"origin":"長野県長野市","pref":"長野県","name":"長野市","code":"20201","pop":372760,"lat":36.64863,"lon":138.19429,"did":3378,"airport":0,"high150":55929,"night":485,"bvlos":3261,"drop":254,"hazmat":155,"low30":3668,"event":1,"high_risk":3961,"monitoring":59772,"moored":2913,"assist_n":54661,"assist_sum":57668,"score_sum":131002,"total_all":60201,"total_valid":60124,"hokatsu":77},{"origin":"香川県丸亀市","pref":"香川県","name":"丸亀市","code":"37202","pop":109513,"lat":34.28948,"lon":133.79771,"did":3778,"airport":0,"high150":0,"night":131,"bvlos":3602,"drop":88,"hazmat":79,"low30":3897,"event":0,"high_risk":3885,"monitoring":3809,"moored":4,"assist_n":3940,"assist_sum":4541,"score_sum":19420,"total_all":3982,"total_valid":3968,"hokatsu":14},{"origin":"茨城県神栖市","pref":"茨城県","name":"神栖市","code":"08232","pop":95454,"lat":35.88997,"lon":140.66452,"did":2888,"airport":0,"high150":148,"night":1047,"bvlos":3473,"drop":81,"hazmat":72,"low30":1982,"event":0,"high_risk":3858,"monitoring":6312,"moored":361,"assist_n":6372,"assist_sum":11216,"score_sum":17553,"total_all":7079,"total_valid":6924,"hokatsu":155},{"origin":"新潟県柏崎市","pref":"新潟県","name":"柏崎市","code":"15205","pop":81526,"lat":37.37197,"lon":138.55884,"did":3516,"airport":0,"high150":5,"night":216,"bvlos":1131,"drop":199,"hazmat":186,"low30":3704,"event":8,"high_risk":3784,"monitoring":3827,"moored":0,"assist_n":3797,"assist_sum":6174,"score_sum":14603,"total_all":3969,"total_valid":3954,"hokatsu":15},{"origin":"北海道苫小牧市","pref":"北海道","name":"苫小牧市","code":"01213","pop":170113,"lat":42.63409,"lon":141.6055,"did":1916,"airport":4,"high150":0,"night":3553,"bvlos":3603,"drop":9,"hazmat":9,"low30":2883,"event":0,"high_risk":3764,"monitoring":3885,"moored":2,"assist_n":3916,"assist_sum":6256,"score_sum":21093,"total_all":4145,"total_valid":4002,"hokatsu":143},{"origin":"沖縄県宮古島市","pref":"沖縄県","name":"宮古島市","code":"47214","pop":52931,"lat":24.80549,"lon":125.28116,"did":3056,"airport":18,"high150":17,"night":597,"bvlos":3468,"drop":1,"hazmat":0,"low30":3686,"event":1,"high_risk":3739,"monitoring":2590,"moored":6,"assist_n":4750,"assist_sum":7373,"score_sum":18020,"total_all":5388,"total_valid":5105,"hokatsu":283},{"origin":"石川県金沢市","pref":"石川県","name":"金沢市","code":"17201","pop":463254,"lat":36.56105,"lon":136.65663,"did":2081,"airport":0,"high150":5,"night":609,"bvlos":1014,"drop":1592,"hazmat":592,"low30":3080,"event":43,"high_risk":3720,"monitoring":3743,"moored":24,"assist_n":4086,"assist_sum":17082,"score_sum":17093,"total_all":4312,"total_valid":4262,"hokatsu":50},{"origin":"静岡県榛原郡川根本町","pref":"静岡県","name":"榛原郡川根本町","code":"22429","pop":6206,"lat":35.04682,"lon":138.0817,"did":1103,"airport":0,"high150":352,"night":45,"bvlos":3711,"drop":0,"hazmat":0,"low30":3340,"event":0,"high_risk":3716,"monitoring":2096,"moored":1,"assist_n":3864,"assist_sum":5156,"score_sum":13762,"total_all":3911,"total_valid":3870,"hokatsu":41},{"origin":"秋田県南秋田郡五城目町","pref":"秋田県","name":"南秋田郡五城目町","code":"05361","pop":8538,"lat":39.94389,"lon":140.11131,"did":3668,"airport":0,"high150":0,"night":14,"bvlos":29,"drop":3675,"hazmat":3675,"low30":3667,"event":0,"high_risk":3707,"monitoring":3687,"moored":0,"assist_n":3708,"assist_sum":7390,"score_sum":33139,"total_all":3729,"total_valid":3711,"hokatsu":18},{"origin":"鹿児島県霧島市","pref":"鹿児島県","name":"霧島市","code":"46218","pop":123135,"lat":31.74101,"lon":130.76314,"did":2347,"airport":781,"high150":10,"night":550,"bvlos":1677,"drop":896,"hazmat":894,"low30":3075,"event":0,"high_risk":3653,"monitoring":1945,"moored":3,"assist_n":3617,"assist_sum":6840,"score_sum":19956,"total_all":3820,"total_valid":3764,"hokatsu":56},{"origin":"茨城県稲敷郡河内町","pref":"茨城県","name":"稲敷郡河内町","code":"08447","pop":8231,"lat":35.88474,"lon":140.24452,"did":559,"airport":0,"high150":0,"night":2203,"bvlos":547,"drop":3054,"hazmat":2438,"low30":2289,"event":0,"high_risk":3641,"monitoring":2997,"moored":616,"assist_n":3495,"assist_sum":17917,"score_sum":25383,"total_all":3775,"total_valid":3763,"hokatsu":12},{"origin":"神奈川県鎌倉市","pref":"神奈川県","name":"鎌倉市","code":"14204","pop":172710,"lat":35.31923,"lon":139.54669,"did":3571,"airport":4,"high150":0,"night":286,"bvlos":3352,"drop":13,"hazmat":9,"low30":3606,"event":1,"high_risk":3635,"monitoring":3455,"moored":1,"assist_n":3537,"assist_sum":3788,"score_sum":18103,"total_all":4757,"total_valid":3718,"hokatsu":1039},{"origin":"兵庫県尼崎市","pref":"兵庫県","name":"尼崎市","code":"28202","pop":459593,"lat":34.73355,"lon":135.40639,"did":3573,"airport":65,"high150":3,"night":237,"bvlos":312,"drop":0,"hazmat":0,"low30":3473,"event":0,"high_risk":3586,"monitoring":3287,"moored":8,"assist_n":3516,"assist_sum":3712,"score_sum":11918,"total_all":3658,"total_valid":3624,"hokatsu":34},{"origin":"北海道茅部郡鹿部町","pref":"北海道","name":"茅部郡鹿部町","code":"01343","pop":3760,"lat":42.03857,"lon":140.8159,"did":47,"airport":3468,"high150":0,"night":41,"bvlos":3,"drop":0,"hazmat":0,"low30":50,"event":0,"high_risk":3516,"monitoring":3512,"moored":0,"assist_n":3517,"assist_sum":3646,"score_sum":10636,"total_all":3519,"total_valid":3519,"hokatsu":0},{"origin":"山梨県北都留郡小菅村","pref":"山梨県","name":"北都留郡小菅村","code":"19442","pop":684,"lat":35.76027,"lon":138.94028,"did":554,"airport":0,"high150":0,"night":16,"bvlos":3493,"drop":0,"hazmat":0,"low30":3496,"event":4,"high_risk":3497,"monitoring":3488,"moored":0,"assist_n":3503,"assist_sum":3682,"score_sum":11626,"total_all":3503,"total_valid":3503,"hokatsu":0},{"origin":"熊本県菊池郡大津町","pref":"熊本県","name":"菊池郡大津町","code":"43403","pop":35187,"lat":32.87899,"lon":130.86829,"did":1890,"airport":1182,"high150":55,"night":1899,"bvlos":1953,"drop":1386,"hazmat":1206,"low30":3222,"event":0,"high_risk":3469,"monitoring":1614,"moored":2,"assist_n":3517,"assist_sum":5585,"score_sum":26138,"total_all":3569,"total_valid":3531,"hokatsu":38},{"origin":"富山県高岡市","pref":"富山県","name":"高岡市","code":"16202","pop":166393,"lat":36.7541,"lon":137.02571,"did":2346,"airport":0,"high150":1,"night":1036,"bvlos":956,"drop":1944,"hazmat":1792,"low30":3483,"event":0,"high_risk":3421,"monitoring":4105,"moored":27,"assist_n":4398,"assist_sum":7909,"score_sum":23369,"total_all":4596,"total_valid":4589,"hokatsu":7},{"origin":"秋田県横手市","pref":"秋田県","name":"横手市","code":"05203","pop":85555,"lat":39.31378,"lon":140.56664,"did":1021,"airport":0,"high150":338,"night":1102,"bvlos":761,"drop":2640,"hazmat":2398,"low30":2699,"event":19,"high_risk":3418,"monitoring":3828,"moored":0,"assist_n":3689,"assist_sum":65832,"score_sum":24276,"total_all":3970,"total_valid":3968,"hokatsu":2},{"origin":"長野県北安曇郡白馬村","pref":"長野県","name":"北安曇郡白馬村","code":"20485","pop":8575,"lat":36.69807,"lon":137.86197,"did":153,"airport":0,"high150":0,"night":82,"bvlos":120,"drop":3287,"hazmat":3278,"low30":210,"event":0,"high_risk":3417,"monitoring":3399,"moored":0,"assist_n":3445,"assist_sum":3636,"score_sum":20615,"total_all":3491,"total_valid":3477,"hokatsu":14},{"origin":"北海道虻田郡洞爺湖町","pref":"北海道","name":"虻田郡洞爺湖町","code":"01584","pop":8442,"lat":42.55122,"lon":140.76413,"did":3389,"airport":0,"high150":2,"night":3158,"bvlos":2599,"drop":15,"hazmat":5,"low30":3388,"event":0,"high_risk":3411,"monitoring":3404,"moored":0,"assist_n":2546,"assist_sum":2592,"score_sum":21744,"total_all":3441,"total_valid":3435,"hokatsu":6},{"origin":"広島県東広島市","pref":"広島県","name":"東広島市","code":"34212","pop":196608,"lat":34.42679,"lon":132.74374,"did":628,"airport":0,"high150":5,"night":480,"bvlos":458,"drop":2713,"hazmat":2641,"low30":5181,"event":3,"high_risk":3408,"monitoring":3932,"moored":1,"assist_n":5928,"assist_sum":6980,"score_sum":24388,"total_all":6491,"total_valid":6340,"hokatsu":151},{"origin":"愛知県田原市","pref":"愛知県","name":"田原市","code":"23231","pop":59360,"lat":34.66897,"lon":137.26382,"did":2971,"airport":0,"high150":1,"night":2817,"bvlos":2943,"drop":356,"hazmat":312,"low30":3072,"event":0,"high_risk":3352,"monitoring":3023,"moored":6,"assist_n":3516,"assist_sum":3997,"score_sum":22540,"total_all":3745,"total_valid":3628,"hokatsu":117},{"origin":"神奈川県川崎市川崎区","pref":"神奈川県","name":"川崎市川崎区","code":"14131","pop":232965,"lat":35.52965,"lon":139.7037,"did":3284,"airport":43,"high150":0,"night":85,"bvlos":2960,"drop":0,"hazmat":0,"low30":3081,"event":0,"high_risk":3341,"monitoring":3011,"moored":4,"assist_n":3195,"assist_sum":3504,"score_sum":15868,"total_all":3470,"total_valid":3347,"hokatsu":123},{"origin":"大阪府大阪市此花区","pref":"大阪府","name":"大阪市此花区","code":"27104","pop":65251,"lat":34.68304,"lon":135.45222,"did":3299,"airport":431,"high150":420,"night":665,"bvlos":2332,"drop":2,"hazmat":0,"low30":2851,"event":418,"high_risk":3331,"monitoring":3161,"moored":10,"assist_n":3243,"assist_sum":16414,"score_sum":18000,"total_all":3529,"total_valid":3376,"hokatsu":153},{"origin":"栃木県那須烏山市","pref":"栃木県","name":"那須烏山市","code":"09215","pop":24875,"lat":36.65689,"lon":140.15138,"did":93,"airport":0,"high150":0,"night":134,"bvlos":75,"drop":3187,"hazmat":3181,"low30":3248,"event":0,"high_risk":3283,"monitoring":3286,"moored":5,"assist_n":3293,"assist_sum":50817,"score_sum":22956,"total_all":3372,"total_valid":3372,"hokatsu":0},{"origin":"静岡県静岡市清水区","pref":"静岡県","name":"静岡市清水区","code":"22103","pop":231066,"lat":35.01573,"lon":138.48961,"did":3099,"airport":4,"high150":77,"night":876,"bvlos":1098,"drop":59,"hazmat":25,"low30":3175,"event":3,"high_risk":3249,"monitoring":2805,"moored":5,"assist_n":3676,"assist_sum":5227,"score_sum":13742,"total_all":4003,"total_valid":3902,"hokatsu":101},{"origin":"秋田県秋田市","pref":"秋田県","name":"秋田市","code":"05201","pop":307672,"lat":39.71993,"lon":140.10251,"did":1926,"airport":111,"high150":5,"night":1130,"bvlos":1341,"drop":1543,"hazmat":1361,"low30":2450,"event":0,"high_risk":3248,"monitoring":2964,"moored":33,"assist_n":3258,"assist_sum":11599,"score_sum":20299,"total_all":3621,"total_valid":3388,"hokatsu":233},{"origin":"岩手県北上市","pref":"岩手県","name":"北上市","code":"03206","pop":93045,"lat":39.28682,"lon":141.11316,"did":818,"airport":276,"high150":6,"night":1750,"bvlos":470,"drop":2630,"hazmat":2311,"low30":2900,"event":0,"high_risk":3168,"monitoring":3444,"moored":197,"assist_n":3750,"assist_sum":7421,"score_sum":24639,"total_all":3895,"total_valid":3833,"hokatsu":62},{"origin":"石川県羽咋郡宝達志水町","pref":"石川県","name":"羽咋郡宝達志水町","code":"17386","pop":12121,"lat":36.86276,"lon":136.79756,"did":2402,"airport":11,"high150":0,"night":1460,"bvlos":1662,"drop":1708,"hazmat":1613,"low30":2699,"event":0,"high_risk":3164,"monitoring":3458,"moored":437,"assist_n":3492,"assist_sum":28854,"score_sum":23743,"total_all":3720,"total_valid":3498,"hokatsu":222},{"origin":"高知県南国市","pref":"高知県","name":"南国市","code":"39204","pop":46664,"lat":33.57567,"lon":133.64146,"did":294,"airport":20,"high150":0,"night":160,"bvlos":152,"drop":2923,"hazmat":204,"low30":383,"event":0,"high_risk":3148,"monitoring":3408,"moored":126,"assist_n":3457,"assist_sum":13410,"score_sum":11036,"total_all":3510,"total_valid":3484,"hokatsu":26},{"origin":"福島県郡山市","pref":"福島県","name":"郡山市","code":"07203","pop":327692,"lat":37.40046,"lon":140.35965,"did":987,"airport":0,"high150":184,"night":557,"bvlos":1314,"drop":1945,"hazmat":448,"low30":2579,"event":2,"high_risk":3096,"monitoring":3097,"moored":4,"assist_n":2764,"assist_sum":5438,"score_sum":15844,"total_all":3577,"total_valid":3531,"hokatsu":46},{"origin":"愛媛県西予市","pref":"愛媛県","name":"西予市","code":"38214","pop":35388,"lat":33.36302,"lon":132.51097,"did":363,"airport":0,"high150":0,"night":102,"bvlos":364,"drop":2671,"hazmat":2576,"low30":544,"event":0,"high_risk":3048,"monitoring":2806,"moored":0,"assist_n":3109,"assist_sum":27147,"score_sum":17943,"total_all":3131,"total_valid":3129,"hokatsu":2},{"origin":"滋賀県野洲市","pref":"滋賀県","name":"野洲市","code":"25210","pop":50513,"lat":35.06747,"lon":136.02588,"did":2169,"airport":0,"high150":1722,"night":2607,"bvlos":215,"drop":2809,"hazmat":2766,"low30":2243,"event":0,"high_risk":3040,"monitoring":3035,"moored":4,"assist_n":3058,"assist_sum":34632,"score_sum":32394,"total_all":3095,"total_valid":3091,"hokatsu":4},{"origin":"福岡県三井郡大刀洗町","pref":"福岡県","name":"三井郡大刀洗町","code":"40503","pop":15521,"lat":33.37243,"lon":130.62245,"did":83,"airport":0,"high150":0,"night":2896,"bvlos":2927,"drop":72,"hazmat":58,"low30":140,"event":0,"high_risk":3017,"monitoring":3041,"moored":0,"assist_n":3027,"assist_sum":8902,"score_sum":12342,"total_all":3059,"total_valid":3059,"hokatsu":0},{"origin":"静岡県伊東市","pref":"静岡県","name":"伊東市","code":"22208","pop":65491,"lat":34.96568,"lon":139.10205,"did":2794,"airport":1,"high150":0,"night":2265,"bvlos":2571,"drop":1,"hazmat":1,"low30":2807,"event":0,"high_risk":3013,"monitoring":1167,"moored":5,"assist_n":3590,"assist_sum":5706,"score_sum":18076,"total_all":3837,"total_valid":3815,"hokatsu":22},{"origin":"茨城県稲敷市","pref":"茨城県","name":"稲敷市","code":"08229","pop":39039,"lat":35.95657,"lon":140.32399,"did":495,"airport":24,"high150":0,"night":1949,"bvlos":414,"drop":2448,"hazmat":2436,"low30":1106,"event":0,"high_risk":3005,"monitoring":3015,"moored":14,"assist_n":3160,"assist_sum":15552,"score_sum":21546,"total_all":3377,"total_valid":3287,"hokatsu":90},{"origin":"和歌山県日高郡日高川町","pref":"和歌山県","name":"日高郡日高川町","code":"30392","pop":9219,"lat":33.91169,"lon":135.186,"did":831,"airport":0,"high150":0,"night":78,"bvlos":2948,"drop":0,"hazmat":0,"low30":2993,"event":0,"high_risk":2998,"monitoring":2386,"moored":0,"assist_n":3003,"assist_sum":3072,"score_sum":10707,"total_all":3012,"total_valid":3006,"hokatsu":6},{"origin":"愛知県新城市","pref":"愛知県","name":"新城市","code":"23221","pop":44355,"lat":34.89923,"lon":137.4985,"did":1045,"airport":0,"high150":0,"night":155,"bvlos":2739,"drop":40,"hazmat":34,"low30":2958,"event":22,"high_risk":2976,"monitoring":2975,"moored":11,"assist_n":3318,"assist_sum":3622,"score_sum":11080,"total_all":3478,"total_valid":3398,"hokatsu":80},{"origin":"秋田県潟上市","pref":"秋田県","name":"潟上市","code":"05211","pop":31720,"lat":39.88324,"lon":139.98862,"did":2426,"airport":0,"high150":0,"night":74,"bvlos":45,"drop":2904,"hazmat":2875,"low30":2860,"event":0,"high_risk":2960,"monitoring":3087,"moored":0,"assist_n":3121,"assist_sum":7792,"score_sum":25287,"total_all":3145,"total_valid":3125,"hokatsu":20},{"origin":"千葉県浦安市","pref":"千葉県","name":"浦安市","code":"12227","pop":171362,"lat":35.65399,"lon":139.90219,"did":2934,"airport":3,"high150":0,"night":2668,"bvlos":2348,"drop":697,"hazmat":400,"low30":2889,"event":0,"high_risk":2956,"monitoring":2899,"moored":20,"assist_n":2940,"assist_sum":5706,"score_sum":22089,"total_all":3242,"total_valid":2957,"hokatsu":285},{"origin":"佐賀県三養基郡みやき町","pref":"佐賀県","name":"三養基郡みやき町","code":"41346","pop":25511,"lat":33.32494,"lon":130.45459,"did":316,"airport":0,"high150":0,"night":1173,"bvlos":492,"drop":2646,"hazmat":1757,"low30":1346,"event":0,"high_risk":2949,"monitoring":3393,"moored":0,"assist_n":3289,"assist_sum":10814,"score_sum":18517,"total_all":3440,"total_valid":3437,"hokatsu":3},{"origin":"静岡県静岡市駿河区","pref":"静岡県","name":"静岡市駿河区","code":"22102","pop":213026,"lat":34.96075,"lon":138.40405,"did":2899,"airport":16,"high150":0,"night":512,"bvlos":323,"drop":3,"hazmat":3,"low30":2764,"event":0,"high_risk":2923,"monitoring":2906,"moored":15,"assist_n":3019,"assist_sum":4485,"score_sum":10298,"total_all":3191,"total_valid":3166,"hokatsu":25},{"origin":"栃木県塩谷郡高根沢町","pref":"栃木県","name":"塩谷郡高根沢町","code":"09386","pop":29229,"lat":36.63098,"lon":139.98668,"did":143,"airport":0,"high150":0,"night":1946,"bvlos":67,"drop":2793,"hazmat":2625,"low30":2497,"event":0,"high_risk":2922,"monitoring":3034,"moored":1,"assist_n":3061,"assist_sum":90960,"score_sum":23063,"total_all":3097,"total_valid":3097,"hokatsu":0},{"origin":"静岡県浜松市中区","pref":"静岡県","name":"浜松市中区","code":"22131","pop":235240,"lat":34.71087,"lon":137.72612,"did":2897,"airport":22,"high150":0,"night":121,"bvlos":128,"drop":3,"hazmat":3,"low30":2906,"event":0,"high_risk":2914,"monitoring":2841,"moored":0,"assist_n":2880,"assist_sum":2991,"score_sum":9282,"total_all":2929,"total_valid":2917,"hokatsu":12},{"origin":"茨城県猿島郡境町","pref":"茨城県","name":"猿島郡境町","code":"08546","pop":24201,"lat":36.10853,"lon":139.79506,"did":681,"airport":0,"high150":4,"night":606,"bvlos":2155,"drop":111,"hazmat":46,"low30":2816,"event":0,"high_risk":2867,"monitoring":2863,"moored":4,"assist_n":2899,"assist_sum":3370,"score_sum":10179,"total_all":2950,"total_valid":2931,"hokatsu":19},{"origin":"岡山県瀬戸内市","pref":"岡山県","name":"瀬戸内市","code":"33212","pop":36048,"lat":34.66489,"lon":134.09285,"did":2754,"airport":0,"high150":0,"night":2706,"bvlos":2772,"drop":19,"hazmat":13,"low30":2778,"event":2,"high_risk":2810,"monitoring":170,"moored":4,"assist_n":2808,"assist_sum":8184,"score_sum":19340,"total_all":2889,"total_valid":2861,"hokatsu":28},{"origin":"北海道樺戸郡新十津川町","pref":"北海道","name":"樺戸郡新十津川町","code":"01432","pop":6484,"lat":43.5485,"lon":141.87701,"did":472,"airport":0,"high150":0,"night":363,"bvlos":2256,"drop":535,"hazmat":376,"low30":2558,"event":51,"high_risk":2789,"monitoring":2480,"moored":7,"assist_n":2958,"assist_sum":84686,"score_sum":11524,"total_all":2985,"total_valid":2984,"hokatsu":1},{"origin":"宮崎県日南市","pref":"宮崎県","name":"日南市","code":"45204","pop":50848,"lat":31.60193,"lon":131.37874,"did":995,"airport":8,"high150":0,"night":484,"bvlos":479,"drop":1919,"hazmat":1223,"low30":2470,"event":0,"high_risk":2773,"monitoring":2499,"moored":681,"assist_n":3431,"assist_sum":54661,"score_sum":15836,"total_all":3775,"total_valid":3477,"hokatsu":298},{"origin":"北海道深川市","pref":"北海道","name":"深川市","code":"01228","pop":20039,"lat":43.72318,"lon":142.05353,"did":153,"airport":0,"high150":0,"night":306,"bvlos":396,"drop":2492,"hazmat":2395,"low30":1868,"event":0,"high_risk":2771,"monitoring":2946,"moored":0,"assist_n":3099,"assist_sum":79785,"score_sum":18239,"total_all":3157,"total_valid":3151,"hokatsu":6},{"origin":"茨城県小美玉市","pref":"茨城県","name":"小美玉市","code":"08236","pop":48870,"lat":36.23928,"lon":140.35258,"did":238,"airport":1,"high150":0,"night":1912,"bvlos":166,"drop":2525,"hazmat":2513,"low30":2815,"event":0,"high_risk":2766,"monitoring":2847,"moored":4,"assist_n":2806,"assist_sum":4373,"score_sum":22564,"total_all":2963,"total_valid":2914,"hokatsu":49},{"origin":"千葉県東金市","pref":"千葉県","name":"東金市","code":"12213","pop":58219,"lat":35.55993,"lon":140.36612,"did":1407,"airport":60,"high150":0,"night":155,"bvlos":237,"drop":2416,"hazmat":2101,"low30":2340,"event":20,"high_risk":2756,"monitoring":2968,"moored":0,"assist_n":2957,"assist_sum":9421,"score_sum":19689,"total_all":5699,"total_valid":3099,"hokatsu":2600},{"origin":"茨城県龍ケ崎市","pref":"茨城県","name":"龍ケ崎市","code":"08208","pop":76420,"lat":35.91159,"lon":140.18227,"did":463,"airport":1093,"high150":0,"night":630,"bvlos":381,"drop":1238,"hazmat":763,"low30":1246,"event":0,"high_risk":2740,"monitoring":2663,"moored":0,"assist_n":1630,"assist_sum":7211,"score_sum":13476,"total_all":2803,"total_valid":2801,"hokatsu":2},{"origin":"秋田県由利本荘市","pref":"秋田県","name":"由利本荘市","code":"05210","pop":74707,"lat":39.38581,"lon":140.04881,"did":1223,"airport":0,"high150":4,"night":768,"bvlos":356,"drop":1966,"hazmat":1645,"low30":1452,"event":2,"high_risk":2737,"monitoring":2000,"moored":13,"assist_n":2956,"assist_sum":9570,"score_sum":16989,"total_all":3061,"total_valid":3014,"hokatsu":47},{"origin":"滋賀県犬上郡豊郷町","pref":"滋賀県","name":"犬上郡豊郷町","code":"25441","pop":7132,"lat":35.20038,"lon":136.22998,"did":12,"airport":2,"high150":0,"night":28,"bvlos":30,"drop":2713,"hazmat":18,"low30":2711,"event":4,"high_risk":2729,"monitoring":2739,"moored":0,"assist_n":2736,"assist_sum":2778,"score_sum":11054,"total_all":2742,"total_valid":2742,"hokatsu":0},{"origin":"千葉県印西市","pref":"千葉県","name":"印西市","code":"12231","pop":102609,"lat":35.83233,"lon":140.14577,"did":819,"airport":1029,"high150":937,"night":294,"bvlos":571,"drop":1173,"hazmat":1109,"low30":1497,"event":8,"high_risk":2708,"monitoring":3197,"moored":0,"assist_n":2814,"assist_sum":10991,"score_sum":16680,"total_all":3508,"total_valid":3494,"hokatsu":14},{"origin":"山口県山口市","pref":"山口県","name":"山口市","code":"35203","pop":193966,"lat":34.17818,"lon":131.47351,"did":1301,"airport":2,"high150":3,"night":535,"bvlos":982,"drop":1277,"hazmat":843,"low30":2169,"event":37,"high_risk":2703,"monitoring":3126,"moored":20,"assist_n":3113,"assist_sum":5116,"score_sum":14214,"total_all":4103,"total_valid":3500,"hokatsu":603},{"origin":"島根県仁多郡奥出雲町","pref":"島根県","name":"仁多郡奥出雲町","code":"32343","pop":11849,"lat":35.19743,"lon":133.00255,"did":134,"airport":0,"high150":0,"night":73,"bvlos":168,"drop":2520,"hazmat":2520,"low30":1641,"event":0,"high_risk":2688,"monitoring":2641,"moored":0,"assist_n":2702,"assist_sum":5355,"score_sum":17511,"total_all":2726,"total_valid":2726,"hokatsu":0},{"origin":"愛知県豊川市","pref":"愛知県","name":"豊川市","code":"23207","pop":184661,"lat":34.82678,"lon":137.37558,"did":2147,"airport":0,"high150":0,"night":332,"bvlos":950,"drop":29,"hazmat":38,"low30":2546,"event":0,"high_risk":2679,"monitoring":2697,"moored":386,"assist_n":2916,"assist_sum":4489,"score_sum":9605,"total_all":3243,"total_valid":3161,"hokatsu":82},{"origin":"新潟県東蒲原郡阿賀町","pref":"新潟県","name":"東蒲原郡阿賀町","code":"15385","pop":9965,"lat":37.67549,"lon":139.45879,"did":311,"airport":0,"high150":2,"night":159,"bvlos":2643,"drop":31,"hazmat":39,"low30":2637,"event":0,"high_risk":2678,"monitoring":3509,"moored":0,"assist_n":4141,"assist_sum":11517,"score_sum":9077,"total_all":4326,"total_valid":4154,"hokatsu":172},{"origin":"三重県松阪市","pref":"三重県","name":"松阪市","code":"24204","pop":159145,"lat":34.57797,"lon":136.52759,"did":1765,"airport":1,"high150":61,"night":683,"bvlos":515,"drop":1876,"hazmat":1815,"low30":2313,"event":0,"high_risk":2664,"monitoring":2679,"moored":1,"assist_n":3533,"assist_sum":6452,"score_sum":19437,"total_all":3703,"total_valid":3642,"hokatsu":61},{"origin":"岐阜県各務原市","pref":"岐阜県","name":"各務原市","code":"21213","pop":144521,"lat":35.39891,"lon":136.84839,"did":2530,"airport":142,"high150":70,"night":1133,"bvlos":1234,"drop":1,"hazmat":1,"low30":2561,"event":0,"high_risk":2642,"monitoring":2631,"moored":0,"assist_n":3130,"assist_sum":3825,"score_sum":12927,"total_all":4245,"total_valid":3211,"hokatsu":1034},{"origin":"静岡県沼津市","pref":"静岡県","name":"沼津市","code":"22203","pop":189386,"lat":35.09572,"lon":138.86334,"did":2555,"airport":0,"high150":36,"night":250,"bvlos":658,"drop":30,"hazmat":23,"low30":2551,"event":0,"high_risk":2613,"monitoring":2567,"moored":1,"assist_n":2897,"assist_sum":3254,"score_sum":9708,"total_all":3183,"total_valid":3134,"hokatsu":49},{"origin":"和歌山県田辺市","pref":"和歌山県","name":"田辺市","code":"30206","pop":69870,"lat":33.72801,"lon":135.37766,"did":827,"airport":0,"high150":244,"night":119,"bvlos":588,"drop":1730,"hazmat":1730,"low30":884,"event":0,"high_risk":2583,"monitoring":3143,"moored":1,"assist_n":1538,"assist_sum":2823,"score_sum":14820,"total_all":3405,"total_valid":3337,"hokatsu":68},{"origin":"愛知県西尾市","pref":"愛知県","name":"西尾市","code":"23213","pop":169046,"lat":34.86201,"lon":137.06174,"did":1617,"airport":1,"high150":312,"night":317,"bvlos":397,"drop":1224,"hazmat":1015,"low30":2361,"event":0,"high_risk":2579,"monitoring":3025,"moored":32,"assist_n":3489,"assist_sum":4305,"score_sum":14367,"total_all":3795,"total_valid":3770,"hokatsu":25},{"origin":"福井県吉田郡永平寺町","pref":"福井県","name":"吉田郡永平寺町","code":"18322","pop":18965,"lat":36.09225,"lon":136.29872,"did":2367,"airport":0,"high150":0,"night":115,"bvlos":107,"drop":237,"hazmat":214,"low30":245,"event":0,"high_risk":2579,"monitoring":365,"moored":0,"assist_n":2609,"assist_sum":7478,"score_sum":6776,"total_all":2626,"total_valid":2616,"hokatsu":10},{"origin":"愛知県豊橋市","pref":"愛知県","name":"豊橋市","code":"23201","pop":371920,"lat":34.7692,"lon":137.39146,"did":2320,"airport":0,"high150":0,"night":301,"bvlos":454,"drop":263,"hazmat":185,"low30":2377,"event":0,"high_risk":2557,"monitoring":3154,"moored":24,"assist_n":4181,"assist_sum":4908,"score_sum":9871,"total_all":4658,"total_valid":4603,"hokatsu":55},{"origin":"青森県十和田市","pref":"青森県","name":"十和田市","code":"02206","pop":60378,"lat":40.6127,"lon":141.20592,"did":275,"airport":109,"high150":6,"night":1598,"bvlos":85,"drop":2444,"hazmat":1980,"low30":1851,"event":0,"high_risk":2557,"monitoring":2685,"moored":34,"assist_n":2741,"assist_sum":14465,"score_sum":19378,"total_all":2774,"total_valid":2748,"hokatsu":26},{"origin":"秋田県仙北郡美郷町","pref":"秋田県","name":"仙北郡美郷町","code":"05434","pop":18613,"lat":39.46163,"lon":140.58212,"did":417,"airport":0,"high150":0,"night":268,"bvlos":115,"drop":2517,"hazmat":1943,"low30":1416,"event":0,"high_risk":2529,"monitoring":2780,"moored":5,"assist_n":2590,"assist_sum":19351,"score_sum":16396,"total_all":2810,"total_valid":2802,"hokatsu":8},{"origin":"岡山県津山市","pref":"岡山県","name":"津山市","code":"33203","pop":99937,"lat":35.06912,"lon":134.00455,"did":835,"airport":0,"high150":0,"night":751,"bvlos":1329,"drop":2073,"hazmat":2067,"low30":1657,"event":0,"high_risk":2521,"monitoring":2147,"moored":0,"assist_n":2653,"assist_sum":6293,"score_sum":19907,"total_all":2733,"total_valid":2694,"hokatsu":39},{"origin":"山形県鶴岡市","pref":"山形県","name":"鶴岡市","code":"06203","pop":122347,"lat":38.72718,"lon":139.82672,"did":422,"airport":0,"high150":2,"night":470,"bvlos":327,"drop":2102,"hazmat":2014,"low30":586,"event":0,"high_risk":2521,"monitoring":2595,"moored":6,"assist_n":2699,"assist_sum":20084,"score_sum":15376,"total_all":2871,"total_valid":2864,"hokatsu":7},{"origin":"千葉県山武市","pref":"千葉県","name":"山武市","code":"12237","pop":48444,"lat":35.60299,"lon":140.41353,"did":872,"airport":66,"high150":0,"night":533,"bvlos":834,"drop":1504,"hazmat":1097,"low30":2042,"event":0,"high_risk":2517,"monitoring":2633,"moored":6,"assist_n":2874,"assist_sum":7504,"score_sum":14521,"total_all":3075,"total_valid":2959,"hokatsu":116},{"origin":"兵庫県赤穂郡上郡町","pref":"兵庫県","name":"赤穂郡上郡町","code":"28481","pop":13879,"lat":34.87358,"lon":134.35609,"did":178,"airport":0,"high150":1,"night":153,"bvlos":162,"drop":2345,"hazmat":2342,"low30":2512,"event":0,"high_risk":2515,"monitoring":2515,"moored":0,"assist_n":2515,"assist_sum":16892,"score_sum":17561,"total_all":2532,"total_valid":2532,"hokatsu":0},{"origin":"富山県中新川郡上市町","pref":"富山県","name":"中新川郡上市町","code":"16322","pop":19351,"lat":36.69843,"lon":137.36258,"did":288,"airport":0,"high150":0,"night":2193,"bvlos":94,"drop":2244,"hazmat":2239,"low30":2389,"event":0,"high_risk":2511,"monitoring":2463,"moored":0,"assist_n":2498,"assist_sum":29761,"score_sum":20988,"total_all":2715,"total_valid":2709,"hokatsu":6},{"origin":"鹿児島県西之表市","pref":"鹿児島県","name":"西之表市","code":"46213","pop":14708,"lat":30.73245,"lon":130.99704,"did":1007,"airport":0,"high150":70,"night":85,"bvlos":2301,"drop":147,"hazmat":147,"low30":2114,"event":0,"high_risk":2496,"monitoring":2844,"moored":15,"assist_n":3181,"assist_sum":11456,"score_sum":9922,"total_all":3194,"total_valid":3194,"hokatsu":0},{"origin":"大阪府茨木市","pref":"大阪府","name":"茨木市","code":"27211","pop":287730,"lat":34.81615,"lon":135.5685,"did":2411,"airport":3,"high150":5,"night":219,"bvlos":504,"drop":53,"hazmat":51,"low30":2443,"event":4,"high_risk":2489,"monitoring":1506,"moored":8,"assist_n":3121,"assist_sum":3541,"score_sum":9046,"total_all":3242,"total_valid":3191,"hokatsu":51},{"origin":"福岡県糸島市","pref":"福岡県","name":"糸島市","code":"40230","pop":98877,"lat":33.55745,"lon":130.1955,"did":2379,"airport":23,"high150":0,"night":253,"bvlos":2092,"drop":116,"hazmat":83,"low30":2459,"event":0,"high_risk":2467,"monitoring":535,"moored":6,"assist_n":2484,"assist_sum":2690,"score_sum":12573,"total_all":2708,"total_valid":2642,"hokatsu":66},{"origin":"三重県伊賀市","pref":"三重県","name":"伊賀市","code":"24216","pop":88766,"lat":34.76883,"lon":136.12991,"did":1397,"airport":3,"high150":1,"night":1560,"bvlos":1103,"drop":1583,"hazmat":1567,"low30":2379,"event":0,"high_risk":2437,"monitoring":2588,"moored":28,"assist_n":2615,"assist_sum":7495,"score_sum":19960,"total_all":3425,"total_valid":2702,"hokatsu":723},{"origin":"青森県つがる市","pref":"青森県","name":"つがる市","code":"02209","pop":30934,"lat":40.80884,"lon":140.38019,"did":1087,"airport":0,"high150":0,"night":631,"bvlos":273,"drop":2385,"hazmat":1995,"low30":1718,"event":2,"high_risk":2431,"monitoring":1969,"moored":12,"assist_n":2546,"assist_sum":5246,"score_sum":18842,"total_all":2576,"total_valid":2554,"hokatsu":22},{"origin":"福島県白河市","pref":"福島県","name":"白河市","code":"07205","pop":59491,"lat":37.12638,"lon":140.21092,"did":1549,"airport":0,"high150":6,"night":1481,"bvlos":336,"drop":2150,"hazmat":1990,"low30":1979,"event":0,"high_risk":2424,"monitoring":2302,"moored":0,"assist_n":2508,"assist_sum":11252,"score_sum":21143,"total_all":2582,"total_valid":2568,"hokatsu":14},{"origin":"埼玉県秩父市","pref":"埼玉県","name":"秩父市","code":"11207","pop":59674,"lat":35.99168,"lon":139.08548,"did":582,"airport":0,"high150":1,"night":1067,"bvlos":1439,"drop":4,"hazmat":4,"low30":676,"event":0,"high_risk":2411,"monitoring":1460,"moored":0,"assist_n":2422,"assist_sum":2972,"score_sum":6878,"total_all":3164,"total_valid":2998,"hokatsu":166},{"origin":"富山県砺波市","pref":"富山県","name":"砺波市","code":"16208","pop":48154,"lat":36.64747,"lon":136.96217,"did":649,"airport":0,"high150":0,"night":920,"bvlos":508,"drop":1866,"hazmat":1739,"low30":2360,"event":0,"high_risk":2410,"monitoring":4100,"moored":0,"assist_n":3837,"assist_sum":6204,"score_sum":17329,"total_all":4257,"total_valid":4253,"hokatsu":4},{"origin":"鹿児島県伊佐市","pref":"鹿児島県","name":"伊佐市","code":"46224","pop":24453,"lat":32.05715,"lon":130.61293,"did":1862,"airport":16,"high150":0,"night":1749,"bvlos":227,"drop":2106,"hazmat":2103,"low30":2357,"event":0,"high_risk":2389,"monitoring":2263,"moored":0,"assist_n":2397,"assist_sum":33624,"score_sum":22708,"total_all":2433,"total_valid":2429,"hokatsu":4},{"origin":"福井県鯖江市","pref":"福井県","name":"鯖江市","code":"18207","pop":68302,"lat":35.95657,"lon":136.18423,"did":1326,"airport":0,"high150":0,"night":1046,"bvlos":68,"drop":1470,"hazmat":1375,"low30":1854,"event":3,"high_risk":2351,"monitoring":2327,"moored":0,"assist_n":2064,"assist_sum":2828,"score_sum":15272,"total_all":2462,"total_valid":2462,"hokatsu":0},{"origin":"千葉県佐倉市","pref":"千葉県","name":"佐倉市","code":"12212","pop":168743,"lat":35.72344,"lon":140.22397,"did":1540,"airport":68,"high150":480,"night":330,"bvlos":744,"drop":630,"hazmat":546,"low30":1645,"event":0,"high_risk":2350,"monitoring":4257,"moored":0,"assist_n":3711,"assist_sum":4123,"score_sum":11565,"total_all":4528,"total_valid":4521,"hokatsu":7},{"origin":"長野県伊那市","pref":"長野県","name":"伊那市","code":"20209","pop":66125,"lat":35.82748,"lon":137.95409,"did":2126,"airport":0,"high150":1,"night":758,"bvlos":830,"drop":754,"hazmat":729,"low30":2213,"event":0,"high_risk":2349,"monitoring":2453,"moored":11,"assist_n":2522,"assist_sum":46221,"score_sum":14092,"total_all":2610,"total_valid":2591,"hokatsu":19},{"origin":"兵庫県宍粟市","pref":"兵庫県","name":"宍粟市","code":"28227","pop":34819,"lat":35.00444,"lon":134.54938,"did":845,"airport":1,"high150":0,"night":832,"bvlos":128,"drop":2081,"hazmat":2068,"low30":2210,"event":0,"high_risk":2309,"monitoring":2271,"moored":0,"assist_n":2301,"assist_sum":11813,"score_sum":18270,"total_all":2382,"total_valid":2362,"hokatsu":20},{"origin":"福島県双葉郡大熊町","pref":"福島県","name":"双葉郡大熊町","code":"07545","pop":847,"lat":37.40443,"lon":140.9834,"did":1796,"airport":0,"high150":1645,"night":480,"bvlos":2263,"drop":40,"hazmat":40,"low30":2161,"event":0,"high_risk":2308,"monitoring":499,"moored":0,"assist_n":2361,"assist_sum":2888,"score_sum":14769,"total_all":2643,"total_valid":2437,"hokatsu":206},{"origin":"神奈川県三浦市","pref":"神奈川県","name":"三浦市","code":"14210","pop":42069,"lat":35.14418,"lon":139.62076,"did":2260,"airport":0,"high150":0,"night":1922,"bvlos":2154,"drop":116,"hazmat":116,"low30":2271,"event":0,"high_risk":2300,"monitoring":2215,"moored":2,"assist_n":2446,"assist_sum":2835,"score_sum":15639,"total_all":2705,"total_valid":2564,"hokatsu":141},{"origin":"大分県中津市","pref":"大分県","name":"中津市","code":"44203","pop":82863,"lat":33.5983,"lon":131.18823,"did":1207,"airport":0,"high150":0,"night":205,"bvlos":865,"drop":1352,"hazmat":1213,"low30":2188,"event":0,"high_risk":2297,"monitoring":2435,"moored":3,"assist_n":2502,"assist_sum":24564,"score_sum":14437,"total_all":2626,"total_valid":2552,"hokatsu":74},{"origin":"北海道北斗市","pref":"北海道","name":"北斗市","code":"01236","pop":44302,"lat":41.82417,"lon":140.65306,"did":107,"airport":244,"high150":10,"night":299,"bvlos":89,"drop":2191,"hazmat":1003,"low30":797,"event":0,"high_risk":2291,"monitoring":2313,"moored":20,"assist_n":2306,"assist_sum":129564,"score_sum":12121,"total_all":2338,"total_valid":2338,"hokatsu":0},{"origin":"埼玉県東松山市","pref":"埼玉県","name":"東松山市","code":"11212","pop":91791,"lat":36.04216,"lon":139.39995,"did":2250,"airport":0,"high150":0,"night":471,"bvlos":1795,"drop":204,"hazmat":202,"low30":1553,"event":0,"high_risk":2285,"monitoring":940,"moored":1,"assist_n":2198,"assist_sum":2995,"score_sum":11803,"total_all":2454,"total_valid":2397,"hokatsu":57},{"origin":"愛知県春日井市","pref":"愛知県","name":"春日井市","code":"23206","pop":308681,"lat":35.24767,"lon":136.97223,"did":2264,"airport":18,"high150":1,"night":374,"bvlos":536,"drop":1,"hazmat":1,"low30":2219,"event":0,"high_risk":2281,"monitoring":2029,"moored":6,"assist_n":2452,"assist_sum":2582,"score_sum":8629,"total_all":2631,"total_valid":2596,"hokatsu":35},{"origin":"青森県上北郡東北町","pref":"青森県","name":"上北郡東北町","code":"02408","pop":16428,"lat":40.72787,"lon":141.25789,"did":435,"airport":116,"high150":0,"night":1229,"bvlos":32,"drop":2240,"hazmat":1682,"low30":1686,"event":0,"high_risk":2272,"monitoring":2228,"moored":0,"assist_n":2321,"assist_sum":10314,"score_sum":17192,"total_all":2386,"total_valid":2321,"hokatsu":65},{"origin":"茨城県つくば市","pref":"茨城県","name":"つくば市","code":"08220","pop":241656,"lat":36.08356,"lon":140.07648,"did":1494,"airport":116,"high150":3,"night":684,"bvlos":1138,"drop":528,"hazmat":379,"low30":1928,"event":0,"high_risk":2268,"monitoring":3345,"moored":121,"assist_n":3318,"assist_sum":5221,"score_sum":11635,"total_all":3975,"total_valid":3891,"hokatsu":84},{"origin":"山形県米沢市","pref":"山形県","name":"米沢市","code":"06202","pop":81252,"lat":37.92224,"lon":140.11668,"did":523,"airport":0,"high150":14,"night":57,"bvlos":334,"drop":1838,"hazmat":1508,"low30":1746,"event":1,"high_risk":2263,"monitoring":2211,"moored":3,"assist_n":2404,"assist_sum":4652,"score_sum":13641,"total_all":2441,"total_valid":2438,"hokatsu":3},{"origin":"埼玉県川越市","pref":"埼玉県","name":"川越市","code":"11201","pop":354571,"lat":35.92511,"lon":139.48584,"did":2058,"airport":2,"high150":2,"night":793,"bvlos":710,"drop":728,"hazmat":661,"low30":2134,"event":0,"high_risk":2257,"monitoring":1860,"moored":3,"assist_n":2161,"assist_sum":2535,"score_sum":13433,"total_all":2418,"total_valid":2324,"hokatsu":94},{"origin":"福岡県福岡市東区","pref":"福岡県","name":"福岡市東区","code":"40131","pop":322503,"lat":33.61774,"lon":130.41736,"did":1826,"airport":134,"high150":0,"night":482,"bvlos":799,"drop":341,"hazmat":323,"low30":2065,"event":9,"high_risk":2250,"monitoring":2030,"moored":10,"assist_n":2155,"assist_sum":7378,"score_sum":10682,"total_all":2539,"total_valid":2304,"hokatsu":235},{"origin":"富山県下新川郡朝日町","pref":"富山県","name":"下新川郡朝日町","code":"16343","pop":11081,"lat":36.94618,"lon":137.55988,"did":164,"airport":0,"high150":22,"night":68,"bvlos":145,"drop":2080,"hazmat":1969,"low30":1980,"event":0,"high_risk":2234,"monitoring":2330,"moored":2,"assist_n":2351,"assist_sum":23483,"score_sum":14925,"total_all":2382,"total_valid":2382,"hokatsu":0},{"origin":"青森県上北郡七戸町","pref":"青森県","name":"上北郡七戸町","code":"02402","pop":14556,"lat":40.74471,"lon":141.15799,"did":216,"airport":0,"high150":0,"night":237,"bvlos":44,"drop":2184,"hazmat":2118,"low30":2144,"event":0,"high_risk":2230,"monitoring":3613,"moored":1,"assist_n":2267,"assist_sum":2459,"score_sum":16044,"total_all":3664,"total_valid":3657,"hokatsu":7},{"origin":"兵庫県揖保郡太子町","pref":"兵庫県","name":"揖保郡太子町","code":"28464","pop":33477,"lat":34.83347,"lon":134.5778,"did":144,"airport":0,"high150":0,"night":2120,"bvlos":2169,"drop":10,"hazmat":10,"low30":2262,"event":0,"high_risk":2229,"monitoring":2234,"moored":0,"assist_n":2239,"assist_sum":2908,"score_sum":11188,"total_all":2301,"total_valid":2267,"hokatsu":34},{"origin":"大分県佐伯市","pref":"大分県","name":"佐伯市","code":"44205","pop":66851,"lat":32.96021,"lon":131.89951,"did":468,"airport":0,"high150":0,"night":180,"bvlos":265,"drop":1801,"hazmat":1796,"low30":572,"event":1,"high_risk":2200,"monitoring":2064,"moored":0,"assist_n":2327,"assist_sum":2906,"score_sum":13190,"total_all":2448,"total_valid":2346,"hokatsu":102},{"origin":"千葉県香取市","pref":"千葉県","name":"香取市","code":"12236","pop":72356,"lat":35.89773,"lon":140.49925,"did":1399,"airport":30,"high150":0,"night":336,"bvlos":1338,"drop":1729,"hazmat":1625,"low30":1751,"event":4,"high_risk":2187,"monitoring":2556,"moored":2,"assist_n":2602,"assist_sum":13551,"score_sum":18053,"total_all":2897,"total_valid":2839,"hokatsu":58},{"origin":"秋田県仙北市","pref":"秋田県","name":"仙北市","code":"05215","pop":24610,"lat":39.70004,"lon":140.73073,"did":1771,"airport":0,"high150":31,"night":156,"bvlos":224,"drop":1996,"hazmat":1977,"low30":2122,"event":0,"high_risk":2183,"monitoring":2229,"moored":0,"assist_n":2362,"assist_sum":6089,"score_sum":18405,"total_all":2426,"total_valid":2384,"hokatsu":42},{"origin":"千葉県香取郡多古町","pref":"千葉県","name":"香取郡多古町","code":"12347","pop":13735,"lat":35.73559,"lon":140.46773,"did":473,"airport":600,"high150":0,"night":175,"bvlos":249,"drop":1731,"hazmat":454,"low30":1068,"event":0,"high_risk":2160,"monitoring":2974,"moored":0,"assist_n":2948,"assist_sum":5392,"score_sum":11217,"total_all":9344,"total_valid":3013,"hokatsu":6331},{"origin":"福島県会津若松市","pref":"福島県","name":"会津若松市","code":"07202","pop":117376,"lat":37.49484,"lon":139.9297,"did":1013,"airport":0,"high150":0,"night":263,"bvlos":289,"drop":1827,"hazmat":291,"low30":1194,"event":0,"high_risk":2157,"monitoring":2360,"moored":0,"assist_n":2462,"assist_sum":3433,"score_sum":10678,"total_all":2533,"total_valid":2478,"hokatsu":55},{"origin":"北海道河東郡上士幌町","pref":"北海道","name":"河東郡上士幌町","code":"01633","pop":4778,"lat":43.23262,"lon":143.29625,"did":430,"airport":0,"high150":1,"night":36,"bvlos":2141,"drop":14,"hazmat":0,"low30":2121,"event":14,"high_risk":2156,"monitoring":2190,"moored":0,"assist_n":2203,"assist_sum":2419,"score_sum":7393,"total_all":2216,"total_valid":2216,"hokatsu":0},{"origin":"長野県駒ヶ根市","pref":"長野県","name":"駒ヶ根市","code":"20210","pop":32202,"lat":35.72886,"lon":137.93399,"did":2123,"airport":0,"high150":1,"night":113,"bvlos":72,"drop":42,"hazmat":42,"low30":2148,"event":0,"high_risk":2152,"monitoring":2286,"moored":2,"assist_n":2280,"assist_sum":2534,"score_sum":7018,"total_all":2359,"total_valid":2307,"hokatsu":52},{"origin":"北海道川上郡標茶町","pref":"北海道","name":"川上郡標茶町","code":"01664","pop":7230,"lat":43.11795,"lon":144.63007,"did":182,"airport":0,"high150":0,"night":86,"bvlos":188,"drop":1958,"hazmat":1956,"low30":188,"event":0,"high_risk":2152,"monitoring":2154,"moored":0,"assist_n":2175,"assist_sum":14314,"score_sum":12842,"total_all":2350,"total_valid":2215,"hokatsu":135},{"origin":"山口県光市","pref":"山口県","name":"光市","code":"35210","pop":49798,"lat":33.96192,"lon":131.94229,"did":2089,"airport":0,"high150":0,"night":1962,"bvlos":73,"drop":69,"hazmat":69,"low30":2042,"event":0,"high_risk":2149,"monitoring":2113,"moored":30,"assist_n":2150,"assist_sum":2184,"score_sum":10704,"total_all":2237,"total_valid":2166,"hokatsu":71},{"origin":"石川県河北郡津幡町","pref":"石川県","name":"河北郡津幡町","code":"17361","pop":36957,"lat":36.66909,"lon":136.72868,"did":100,"airport":0,"high150":0,"night":39,"bvlos":149,"drop":1965,"hazmat":88,"low30":2039,"event":8,"high_risk":2136,"monitoring":2171,"moored":1,"assist_n":2233,"assist_sum":4786,"score_sum":8782,"total_all":2248,"total_valid":2244,"hokatsu":4},{"origin":"新潟県村上市","pref":"新潟県","name":"村上市","code":"15212","pop":57418,"lat":38.22399,"lon":139.48004,"did":270,"airport":0,"high150":43,"night":788,"bvlos":187,"drop":1888,"hazmat":1855,"low30":1868,"event":0,"high_risk":2132,"monitoring":2227,"moored":5,"assist_n":2456,"assist_sum":5400,"score_sum":15673,"total_all":2598,"total_valid":2479,"hokatsu":119},{"origin":"北海道北見市","pref":"北海道","name":"北見市","code":"01208","pop":115480,"lat":43.80782,"lon":143.89438,"did":601,"airport":0,"high150":63,"night":224,"bvlos":643,"drop":1370,"hazmat":892,"low30":1342,"event":1,"high_risk":2101,"monitoring":1778,"moored":0,"assist_n":1655,"assist_sum":2607,"score_sum":11191,"total_all":2262,"total_valid":2258,"hokatsu":4},{"origin":"三重県津市","pref":"三重県","name":"津市","code":"24201","pop":274537,"lat":34.71856,"lon":136.50545,"did":1705,"airport":63,"high150":238,"night":566,"bvlos":650,"drop":729,"hazmat":680,"low30":1795,"event":4,"high_risk":2094,"monitoring":3156,"moored":50,"assist_n":3084,"assist_sum":4960,"score_sum":12533,"total_all":3867,"total_valid":3647,"hokatsu":220},{"origin":"福井県越前市","pref":"福井県","name":"越前市","code":"18209","pop":80611,"lat":35.90347,"lon":136.16867,"did":635,"airport":0,"high150":0,"night":94,"bvlos":309,"drop":1453,"hazmat":1433,"low30":957,"event":0,"high_risk":2089,"monitoring":2234,"moored":3,"assist_n":2191,"assist_sum":5217,"score_sum":11691,"total_all":2364,"total_valid":2364,"hokatsu":0},{"origin":"北海道岩見沢市","pref":"北海道","name":"岩見沢市","code":"01210","pop":79306,"lat":43.19617,"lon":141.77586,"did":1009,"airport":0,"high150":0,"night":290,"bvlos":1000,"drop":1082,"hazmat":832,"low30":1506,"event":1,"high_risk":2073,"monitoring":2305,"moored":3,"assist_n":1610,"assist_sum":32279,"score_sum":11847,"total_all":2522,"total_valid":2517,"hokatsu":5},{"origin":"富山県氷見市","pref":"富山県","name":"氷見市","code":"16205","pop":43950,"lat":36.85598,"lon":136.97287,"did":1959,"airport":0,"high150":6,"night":160,"bvlos":228,"drop":1853,"hazmat":1791,"low30":1935,"event":0,"high_risk":2055,"monitoring":2010,"moored":0,"assist_n":2148,"assist_sum":9159,"score_sum":17573,"total_all":2180,"total_valid":2172,"hokatsu":8},{"origin":"神奈川県厚木市","pref":"神奈川県","name":"厚木市","code":"14212","pop":223705,"lat":35.44305,"lon":139.36244,"did":1867,"airport":0,"high150":27889,"night":310,"bvlos":619,"drop":340,"hazmat":336,"low30":1721,"event":0,"high_risk":2051,"monitoring":29106,"moored":1,"assist_n":30017,"assist_sum":30888,"score_sum":65119,"total_all":30378,"total_valid":30217,"hokatsu":161},{"origin":"神奈川県横須賀市","pref":"神奈川県","name":"横須賀市","code":"14201","pop":388078,"lat":35.28128,"lon":139.67229,"did":2025,"airport":0,"high150":2,"night":1098,"bvlos":1285,"drop":307,"hazmat":305,"low30":1704,"event":11,"high_risk":2050,"monitoring":2001,"moored":4,"assist_n":1809,"assist_sum":3451,"score_sum":12371,"total_all":2496,"total_valid":2259,"hokatsu":237},{"origin":"岡山県倉敷市","pref":"岡山県","name":"倉敷市","code":"33202","pop":474592,"lat":34.58468,"lon":133.77228,"did":1505,"airport":1,"high150":0,"night":744,"bvlos":1228,"drop":393,"hazmat":437,"low30":1610,"event":0,"high_risk":2047,"monitoring":1961,"moored":21,"assist_n":1969,"assist_sum":3478,"score_sum":11057,"total_all":2598,"total_valid":2376,"hokatsu":222},{"origin":"神奈川県藤沢市","pref":"神奈川県","name":"藤沢市","code":"14205","pop":436905,"lat":35.33894,"lon":139.49112,"did":1752,"airport":0,"high150":21,"night":738,"bvlos":1462,"drop":14,"hazmat":3,"low30":1884,"event":7,"high_risk":2043,"monitoring":1924,"moored":7,"assist_n":1739,"assist_sum":2904,"score_sum":9888,"total_all":4811,"total_valid":2876,"hokatsu":1935},{"origin":"福岡県久留米市","pref":"福岡県","name":"久留米市","code":"40203","pop":303316,"lat":33.31929,"lon":130.50838,"did":1176,"airport":16,"high150":2,"night":719,"bvlos":558,"drop":1174,"hazmat":1037,"low30":1878,"event":0,"high_risk":2019,"monitoring":1672,"moored":5,"assist_n":2071,"assist_sum":5267,"score_sum":13469,"total_all":2245,"total_valid":2167,"hokatsu":78},{"origin":"滋賀県守山市","pref":"滋賀県","name":"守山市","code":"25207","pop":83236,"lat":35.05866,"lon":135.99402,"did":1753,"airport":0,"high150":922,"night":1192,"bvlos":655,"drop":1275,"hazmat":1243,"low30":1851,"event":24,"high_risk":2011,"monitoring":2295,"moored":0,"assist_n":2303,"assist_sum":22132,"score_sum":18473,"total_all":2372,"total_valid":2337,"hokatsu":35},{"origin":"宮崎県東諸県郡国富町","pref":"宮崎県","name":"東諸県郡国富町","code":"45382","pop":18398,"lat":31.99065,"lon":131.32353,"did":904,"airport":0,"high150":0,"night":866,"bvlos":646,"drop":1279,"hazmat":900,"low30":1019,"event":0,"high_risk":1972,"monitoring":1862,"moored":2,"assist_n":2247,"assist_sum":4194,"score_sum":12388,"total_all":2312,"total_valid":2312,"hokatsu":0},{"origin":"福島県須賀川市","pref":"福島県","name":"須賀川市","code":"07207","pop":74992,"lat":37.28944,"lon":140.35428,"did":1399,"airport":0,"high150":1,"night":1600,"bvlos":1328,"drop":592,"hazmat":471,"low30":1876,"event":0,"high_risk":1971,"monitoring":2638,"moored":7,"assist_n":2345,"assist_sum":4440,"score_sum":13721,"total_all":3188,"total_valid":3183,"hokatsu":5},{"origin":"長崎県大村市","pref":"長崎県","name":"大村市","code":"42205","pop":95397,"lat":32.89996,"lon":129.95822,"did":1152,"airport":742,"high150":0,"night":812,"bvlos":877,"drop":126,"hazmat":126,"low30":1278,"event":0,"high_risk":1968,"monitoring":1233,"moored":0,"assist_n":1930,"assist_sum":3102,"score_sum":9942,"total_all":2046,"total_valid":2004,"hokatsu":42},{"origin":"岩手県奥州市","pref":"岩手県","name":"奥州市","code":"03215","pop":112937,"lat":39.1445,"lon":141.13911,"did":447,"airport":0,"high150":1288,"night":1003,"bvlos":300,"drop":1567,"hazmat":1343,"low30":1442,"event":0,"high_risk":1966,"monitoring":4066,"moored":1,"assist_n":3952,"assist_sum":6881,"score_sum":16248,"total_all":4370,"total_valid":4351,"hokatsu":19},{"origin":"岩手県下閉伊郡岩泉町","pref":"岩手県","name":"下閉伊郡岩泉町","code":"03483","pop":8726,"lat":39.8432,"lon":141.79668,"did":14,"airport":0,"high150":0,"night":89,"bvlos":1914,"drop":0,"hazmat":0,"low30":1969,"event":0,"high_risk":1962,"monitoring":1315,"moored":0,"assist_n":855,"assist_sum":1301,"score_sum":6003,"total_all":2090,"total_valid":2086,"hokatsu":4},{"origin":"山形県東置賜郡川西町","pref":"山形県","name":"東置賜郡川西町","code":"06382","pop":14558,"lat":38.00448,"lon":140.04579,"did":112,"airport":0,"high150":0,"night":497,"bvlos":29,"drop":1915,"hazmat":1873,"low30":1217,"event":0,"high_risk":1955,"monitoring":1983,"moored":0,"assist_n":1968,"assist_sum":4944,"score_sum":13857,"total_all":2064,"total_valid":2064,"hokatsu":0},{"origin":"三重県四日市市","pref":"三重県","name":"四日市市","code":"24202","pop":305424,"lat":34.96509,"lon":136.62442,"did":1726,"airport":7,"high150":7,"night":318,"bvlos":1047,"drop":220,"hazmat":202,"low30":1770,"event":9,"high_risk":1946,"monitoring":1797,"moored":30,"assist_n":1473,"assist_sum":6490,"score_sum":9262,"total_all":2123,"total_valid":2040,"hokatsu":83},{"origin":"東京都江戸川区","pref":"東京都","name":"江戸川区","code":"13123","pop":697932,"lat":35.70665,"lon":139.86832,"did":1936,"airport":19,"high150":0,"night":127,"bvlos":1491,"drop":0,"hazmat":0,"low30":1847,"event":0,"high_risk":1937,"monitoring":1827,"moored":5,"assist_n":1780,"assist_sum":1995,"score_sum":9012,"total_all":2005,"total_valid":1944,"hokatsu":61},{"origin":"長崎県五島市","pref":"長崎県","name":"五島市","code":"42211","pop":34391,"lat":32.69554,"lon":128.84082,"did":108,"airport":3,"high150":35,"night":91,"bvlos":1915,"drop":1694,"hazmat":0,"low30":1923,"event":16,"high_risk":1937,"monitoring":2001,"moored":0,"assist_n":255,"assist_sum":444,"score_sum":11328,"total_all":2112,"total_valid":2051,"hokatsu":61},{"origin":"東京都八王子市","pref":"東京都","name":"八王子市","code":"13201","pop":579355,"lat":35.66657,"lon":139.31607,"did":1877,"airport":1,"high150":4,"night":412,"bvlos":999,"drop":0,"hazmat":0,"low30":1810,"event":0,"high_risk":1934,"monitoring":1878,"moored":28,"assist_n":1739,"assist_sum":2676,"score_sum":8397,"total_all":2206,"total_valid":2135,"hokatsu":71},{"origin":"富山県射水市","pref":"富山県","name":"射水市","code":"16211","pop":90742,"lat":36.71222,"lon":137.09956,"did":759,"airport":0,"high150":0,"night":526,"bvlos":426,"drop":1261,"hazmat":1058,"low30":1742,"event":9,"high_risk":1911,"monitoring":1881,"moored":10,"assist_n":1982,"assist_sum":4790,"score_sum":12130,"total_all":2286,"total_valid":2251,"hokatsu":35},{"origin":"岐阜県大垣市","pref":"岐阜県","name":"大垣市","code":"21202","pop":158286,"lat":35.35936,"lon":136.61275,"did":1722,"airport":0,"high150":2,"night":212,"bvlos":210,"drop":170,"hazmat":93,"low30":1859,"event":0,"high_risk":1875,"monitoring":1868,"moored":1,"assist_n":2453,"assist_sum":2867,"score_sum":6940,"total_all":2712,"total_valid":2708,"hokatsu":4},{"origin":"島根県松江市","pref":"島根県","name":"松江市","code":"32201","pop":203616,"lat":35.46804,"lon":133.04852,"did":1597,"airport":0,"high150":0,"night":492,"bvlos":1516,"drop":103,"hazmat":96,"low30":1548,"event":2,"high_risk":1852,"monitoring":1327,"moored":15,"assist_n":2031,"assist_sum":2780,"score_sum":9357,"total_all":2164,"total_valid":2122,"hokatsu":42},{"origin":"埼玉県鴻巣市","pref":"埼玉県","name":"鴻巣市","code":"11217","pop":116828,"lat":36.06576,"lon":139.52217,"did":1264,"airport":0,"high150":1282,"night":369,"bvlos":1182,"drop":496,"hazmat":123,"low30":612,"event":0,"high_risk":1839,"monitoring":2539,"moored":0,"assist_n":3336,"assist_sum":6407,"score_sum":10663,"total_all":3441,"total_valid":3431,"hokatsu":10},{"origin":"兵庫県姫路市","pref":"兵庫県","name":"姫路市","code":"28201","pop":530495,"lat":34.81549,"lon":134.68546,"did":1736,"airport":0,"high150":1,"night":580,"bvlos":1188,"drop":76,"hazmat":69,"low30":1770,"event":0,"high_risk":1837,"monitoring":1588,"moored":15,"assist_n":1861,"assist_sum":2595,"score_sum":9215,"total_all":2056,"total_valid":1996,"hokatsu":60},{"origin":"秋田県湯沢市","pref":"秋田県","name":"湯沢市","code":"05207","pop":42091,"lat":39.16407,"lon":140.49469,"did":880,"airport":0,"high150":242,"night":700,"bvlos":397,"drop":1418,"hazmat":1339,"low30":1501,"event":6,"high_risk":1821,"monitoring":1978,"moored":1,"assist_n":2050,"assist_sum":22269,"score_sum":14216,"total_all":2173,"total_valid":2071,"hokatsu":102},{"origin":"北海道雨竜郡北竜町","pref":"北海道","name":"雨竜郡北竜町","code":"01437","pop":1724,"lat":43.73143,"lon":141.87941,"did":67,"airport":0,"high150":0,"night":685,"bvlos":4,"drop":1811,"hazmat":1792,"low30":837,"event":0,"high_risk":1815,"monitoring":2024,"moored":0,"assist_n":2026,"assist_sum":92341,"score_sum":13158,"total_all":2026,"total_valid":2026,"hokatsu":0},{"origin":"三重県鈴鹿市","pref":"三重県","name":"鈴鹿市","code":"24207","pop":195670,"lat":34.88187,"lon":136.58418,"did":1371,"airport":4,"high150":109,"night":145,"bvlos":613,"drop":506,"hazmat":460,"low30":1562,"event":0,"high_risk":1814,"monitoring":1802,"moored":72,"assist_n":1979,"assist_sum":4005,"score_sum":8948,"total_all":2296,"total_valid":2231,"hokatsu":65},{"origin":"滋賀県彦根市","pref":"滋賀県","name":"彦根市","code":"25202","pop":113647,"lat":35.27446,"lon":136.25963,"did":494,"airport":0,"high150":363,"night":275,"bvlos":225,"drop":1294,"hazmat":1016,"low30":620,"event":0,"high_risk":1814,"monitoring":2510,"moored":152,"assist_n":2456,"assist_sum":3975,"score_sum":10264,"total_all":2894,"total_valid":2889,"hokatsu":5},{"origin":"愛知県稲沢市","pref":"愛知県","name":"稲沢市","code":"23220","pop":134751,"lat":35.24813,"lon":136.78021,"did":1761,"airport":0,"high150":0,"night":14,"bvlos":60,"drop":1127,"hazmat":1118,"low30":1745,"event":0,"high_risk":1797,"monitoring":1952,"moored":4,"assist_n":2457,"assist_sum":6127,"score_sum":12150,"total_all":2726,"total_valid":2717,"hokatsu":9},{"origin":"宮崎県西都市","pref":"宮崎県","name":"西都市","code":"45208","pop":28610,"lat":32.10856,"lon":131.40126,"did":447,"airport":0,"high150":0,"night":40,"bvlos":317,"drop":1469,"hazmat":1409,"low30":1839,"event":0,"high_risk":1793,"monitoring":1663,"moored":0,"assist_n":2020,"assist_sum":5180,"score_sum":12081,"total_all":2105,"total_valid":2057,"hokatsu":48},{"origin":"神奈川県茅ヶ崎市","pref":"神奈川県","name":"茅ヶ崎市","code":"14207","pop":242389,"lat":35.33388,"lon":139.40471,"did":1741,"airport":0,"high150":0,"night":215,"bvlos":519,"drop":15,"hazmat":15,"low30":856,"event":0,"high_risk":1759,"monitoring":1422,"moored":17,"assist_n":1762,"assist_sum":1921,"score_sum":5896,"total_all":2752,"total_valid":2329,"hokatsu":423},{"origin":"秋田県能代市","pref":"秋田県","name":"能代市","code":"05202","pop":49968,"lat":40.21213,"lon":140.02664,"did":1073,"airport":0,"high150":0,"night":29,"bvlos":103,"drop":1621,"hazmat":1403,"low30":1315,"event":0,"high_risk":1752,"monitoring":2141,"moored":2,"assist_n":2191,"assist_sum":12559,"score_sum":12797,"total_all":2218,"total_valid":2201,"hokatsu":17},{"origin":"富山県小矢部市","pref":"富山県","name":"小矢部市","code":"16209","pop":28983,"lat":36.67553,"lon":136.86865,"did":296,"airport":0,"high150":0,"night":400,"bvlos":121,"drop":1586,"hazmat":1493,"low30":1154,"event":0,"high_risk":1748,"monitoring":1703,"moored":14,"assist_n":1927,"assist_sum":13706,"score_sum":12025,"total_all":1938,"total_valid":1931,"hokatsu":7},{"origin":"栃木県矢板市","pref":"栃木県","name":"矢板市","code":"09211","pop":31165,"lat":36.80673,"lon":139.92422,"did":195,"airport":0,"high150":0,"night":59,"bvlos":82,"drop":1582,"hazmat":1564,"low30":1469,"event":0,"high_risk":1745,"monitoring":1715,"moored":1,"assist_n":1771,"assist_sum":14745,"score_sum":11579,"total_all":1793,"total_valid":1780,"hokatsu":13},{"origin":"新潟県新潟市西蒲区","pref":"新潟県","name":"新潟市西蒲区","code":"15108","pop":54546,"lat":37.76033,"lon":138.88925,"did":264,"airport":0,"high150":25,"night":363,"bvlos":216,"drop":1495,"hazmat":1432,"low30":712,"event":4,"high_risk":1691,"monitoring":1685,"moored":18,"assist_n":1731,"assist_sum":3076,"score_sum":11233,"total_all":1748,"total_valid":1739,"hokatsu":9},{"origin":"静岡県磐田市","pref":"静岡県","name":"磐田市","code":"22211","pop":166672,"lat":34.71788,"lon":137.85152,"did":1355,"airport":0,"high150":446,"night":283,"bvlos":406,"drop":234,"hazmat":121,"low30":1575,"event":0,"high_risk":1671,"monitoring":2390,"moored":2,"assist_n":2572,"assist_sum":3382,"score_sum":7620,"total_all":3633,"total_valid":3516,"hokatsu":117},{"origin":"埼玉県八潮市","pref":"埼玉県","name":"八潮市","code":"11234","pop":93363,"lat":35.82254,"lon":139.83917,"did":1670,"airport":0,"high150":0,"night":742,"bvlos":1572,"drop":0,"hazmat":0,"low30":1406,"event":0,"high_risk":1671,"monitoring":1291,"moored":0,"assist_n":1620,"assist_sum":5651,"score_sum":9374,"total_all":1694,"total_valid":1677,"hokatsu":17},{"origin":"愛知県刈谷市","pref":"愛知県","name":"刈谷市","code":"23210","pop":153834,"lat":34.98886,"lon":137.00206,"did":1655,"airport":1,"high150":1,"night":352,"bvlos":426,"drop":94,"hazmat":88,"low30":1639,"event":12,"high_risk":1665,"monitoring":1619,"moored":0,"assist_n":1886,"assist_sum":2165,"score_sum":7068,"total_all":2080,"total_valid":2016,"hokatsu":64},{"origin":"岩手県盛岡市","pref":"岩手県","name":"盛岡市","code":"03201","pop":289731,"lat":39.71139,"lon":141.23064,"did":1294,"airport":0,"high150":0,"night":884,"bvlos":1021,"drop":295,"hazmat":238,"low30":1617,"event":0,"high_risk":1658,"monitoring":2032,"moored":0,"assist_n":2218,"assist_sum":4443,"score_sum":9614,"total_all":2441,"total_valid":2349,"hokatsu":92},{"origin":"北海道美唄市","pref":"北海道","name":"美唄市","code":"01215","pop":20413,"lat":43.33295,"lon":141.85399,"did":64,"airport":0,"high150":0,"night":873,"bvlos":113,"drop":1541,"hazmat":1003,"low30":1003,"event":0,"high_risk":1657,"monitoring":1671,"moored":0,"assist_n":1691,"assist_sum":3739,"score_sum":10735,"total_all":1746,"total_valid":1746,"hokatsu":0},{"origin":"宮城県大崎市","pref":"宮城県","name":"大崎市","code":"04215","pop":127330,"lat":38.57713,"lon":140.95557,"did":377,"airport":0,"high150":30,"night":617,"bvlos":272,"drop":1282,"hazmat":1152,"low30":1243,"event":5,"high_risk":1655,"monitoring":2411,"moored":3,"assist_n":2330,"assist_sum":11298,"score_sum":11142,"total_all":2540,"total_valid":2508,"hokatsu":32},{"origin":"新潟県新発田市","pref":"新潟県","name":"新発田市","code":"15206","pop":94927,"lat":37.95088,"lon":139.3279,"did":1026,"airport":0,"high150":96,"night":332,"bvlos":121,"drop":1291,"hazmat":1134,"low30":1556,"event":6,"high_risk":1636,"monitoring":1791,"moored":37,"assist_n":1995,"assist_sum":4828,"score_sum":11987,"total_all":2059,"total_valid":2017,"hokatsu":42},{"origin":"新潟県新潟市南区","pref":"新潟県","name":"新潟市南区","code":"15106","pop":43437,"lat":37.76582,"lon":139.01918,"did":100,"airport":0,"high150":19,"night":166,"bvlos":31,"drop":1549,"hazmat":1106,"low30":236,"event":8,"high_risk":1633,"monitoring":1661,"moored":0,"assist_n":1649,"assist_sum":4029,"score_sum":8841,"total_all":1687,"total_valid":1687,"hokatsu":0},{"origin":"福井県敦賀市","pref":"福井県","name":"敦賀市","code":"18202","pop":64264,"lat":35.64522,"lon":136.05554,"did":482,"airport":0,"high150":0,"night":174,"bvlos":1411,"drop":69,"hazmat":69,"low30":1541,"event":0,"high_risk":1632,"monitoring":415,"moored":1,"assist_n":1645,"assist_sum":1926,"score_sum":6089,"total_all":3516,"total_valid":1735,"hokatsu":1781},{"origin":"東京都足立区","pref":"東京都","name":"足立区","code":"13121","pop":695043,"lat":35.77494,"lon":139.80458,"did":1630,"airport":1,"high150":72,"night":1060,"bvlos":1119,"drop":0,"hazmat":0,"low30":1539,"event":2,"high_risk":1630,"monitoring":1552,"moored":3,"assist_n":1379,"assist_sum":3230,"score_sum":9306,"total_all":1662,"total_valid":1637,"hokatsu":25},{"origin":"愛知県安城市","pref":"愛知県","name":"安城市","code":"23212","pop":187990,"lat":34.95864,"lon":137.08029,"did":1394,"airport":3,"high150":0,"night":161,"bvlos":296,"drop":282,"hazmat":229,"low30":1494,"event":0,"high_risk":1622,"monitoring":1520,"moored":0,"assist_n":1909,"assist_sum":2370,"score_sum":6738,"total_all":2052,"total_valid":2034,"hokatsu":18},{"origin":"新潟県新潟市秋葉区","pref":"新潟県","name":"新潟市秋葉区","code":"15105","pop":75069,"lat":37.78836,"lon":139.11462,"did":607,"airport":0,"high150":3,"night":430,"bvlos":89,"drop":1371,"hazmat":1366,"low30":1348,"event":0,"high_risk":1616,"monitoring":1601,"moored":0,"assist_n":1627,"assist_sum":4941,"score_sum":11817,"total_all":1641,"total_valid":1641,"hokatsu":0},{"origin":"三重県桑名市","pref":"三重県","name":"桑名市","code":"24205","pop":138613,"lat":35.06229,"lon":136.68353,"did":976,"airport":0,"high150":243,"night":689,"bvlos":1323,"drop":170,"hazmat":146,"low30":1569,"event":0,"high_risk":1610,"monitoring":1635,"moored":0,"assist_n":1572,"assist_sum":2450,"score_sum":8979,"total_all":2165,"total_valid":1937,"hokatsu":228},{"origin":"岩手県岩手郡雫石町","pref":"岩手県","name":"岩手郡雫石町","code":"03301","pop":15731,"lat":39.69632,"lon":140.97578,"did":149,"airport":0,"high150":2,"night":980,"bvlos":528,"drop":1465,"hazmat":982,"low30":1130,"event":0,"high_risk":1608,"monitoring":1721,"moored":2,"assist_n":2046,"assist_sum":4359,"score_sum":11789,"total_all":2082,"total_valid":2080,"hokatsu":2},{"origin":"高知県高知市","pref":"高知県","name":"高知市","code":"39201","pop":326545,"lat":33.55879,"lon":133.53116,"did":1517,"airport":0,"high150":0,"night":542,"bvlos":597,"drop":647,"hazmat":654,"low30":1475,"event":7,"high_risk":1597,"monitoring":1756,"moored":10,"assist_n":1736,"assist_sum":20198,"score_sum":10697,"total_all":2132,"total_valid":2119,"hokatsu":13},{"origin":"香川県高松市","pref":"香川県","name":"高松市","code":"37201","pop":417496,"lat":34.34279,"lon":134.04657,"did":1187,"airport":16,"high150":36,"night":629,"bvlos":771,"drop":319,"hazmat":195,"low30":1569,"event":6,"high_risk":1581,"monitoring":1443,"moored":18,"assist_n":1709,"assist_sum":7256,"score_sum":8411,"total_all":2220,"total_valid":2156,"hokatsu":64},{"origin":"愛知県名古屋市緑区","pref":"愛知県","name":"名古屋市緑区","code":"23114","pop":248802,"lat":35.07072,"lon":136.95261,"did":1580,"airport":0,"high150":0,"night":319,"bvlos":411,"drop":1,"hazmat":4,"low30":1559,"event":0,"high_risk":1580,"monitoring":1434,"moored":9,"assist_n":1451,"assist_sum":2507,"score_sum":6194,"total_all":1639,"total_valid":1581,"hokatsu":58},{"origin":"埼玉県比企郡川島町","pref":"埼玉県","name":"比企郡川島町","code":"11346","pop":19378,"lat":35.98204,"lon":139.48152,"did":360,"airport":0,"high150":0,"night":152,"bvlos":1412,"drop":99,"hazmat":67,"low30":1513,"event":0,"high_risk":1567,"monitoring":416,"moored":3,"assist_n":1544,"assist_sum":1696,"score_sum":5859,"total_all":1657,"total_valid":1618,"hokatsu":39},{"origin":"広島県尾道市","pref":"広島県","name":"尾道市","code":"34205","pop":131170,"lat":34.40889,"lon":133.20497,"did":906,"airport":0,"high150":25,"night":305,"bvlos":729,"drop":587,"hazmat":261,"low30":1180,"event":3,"high_risk":1556,"monitoring":1498,"moored":82,"assist_n":1489,"assist_sum":2498,"score_sum":7657,"total_all":1864,"total_valid":1806,"hokatsu":58},{"origin":"滋賀県大津市","pref":"滋賀県","name":"大津市","code":"25201","pop":345070,"lat":35.01836,"lon":135.85466,"did":1324,"airport":0,"high150":2,"night":400,"bvlos":709,"drop":227,"hazmat":98,"low30":1493,"event":0,"high_risk":1547,"monitoring":1391,"moored":14,"assist_n":1401,"assist_sum":1903,"score_sum":7338,"total_all":1831,"total_valid":1757,"hokatsu":74},{"origin":"滋賀県長浜市","pref":"滋賀県","name":"長浜市","code":"25203","pop":113636,"lat":35.38145,"lon":136.27544,"did":442,"airport":0,"high150":3,"night":609,"bvlos":202,"drop":1289,"hazmat":1029,"low30":918,"event":0,"high_risk":1542,"monitoring":1566,"moored":231,"assist_n":1760,"assist_sum":3098,"score_sum":10384,"total_all":1813,"total_valid":1803,"hokatsu":10},{"origin":"新潟県刈羽郡刈羽村","pref":"新潟県","name":"刈羽郡刈羽村","code":"15504","pop":4380,"lat":37.42236,"lon":138.62244,"did":1512,"airport":0,"high150":0,"night":12,"bvlos":27,"drop":15,"hazmat":5,"low30":1516,"event":0,"high_risk":1531,"monitoring":1522,"moored":0,"assist_n":1531,"assist_sum":1598,"score_sum":4678,"total_all":1531,"total_valid":1531,"hokatsu":0},{"origin":"滋賀県愛知郡愛荘町","pref":"滋賀県","name":"愛知郡愛荘町","code":"25425","pop":20893,"lat":35.16883,"lon":136.21231,"did":50,"airport":0,"high150":0,"night":48,"bvlos":44,"drop":1468,"hazmat":1401,"low30":155,"event":0,"high_risk":1520,"monitoring":1563,"moored":3,"assist_n":1601,"assist_sum":3706,"score_sum":9046,"total_all":1626,"total_valid":1624,"hokatsu":2},{"origin":"大分県国東市","pref":"大分県","name":"国東市","code":"44214","pop":26232,"lat":33.5653,"lon":131.73167,"did":1348,"airport":0,"high150":4,"night":35,"bvlos":58,"drop":1455,"hazmat":1446,"low30":1374,"event":0,"high_risk":1517,"monitoring":1134,"moored":4,"assist_n":1588,"assist_sum":4036,"score_sum":12967,"total_all":1599,"total_valid":1595,"hokatsu":4},{"origin":"静岡県藤枝市","pref":"静岡県","name":"藤枝市","code":"22214","pop":141342,"lat":34.86735,"lon":138.25755,"did":1474,"airport":0,"high150":1,"night":136,"bvlos":157,"drop":72,"hazmat":58,"low30":1546,"event":0,"high_risk":1515,"monitoring":2011,"moored":2,"assist_n":2425,"assist_sum":2740,"score_sum":5472,"total_all":2530,"total_valid":2496,"hokatsu":34},{"origin":"千葉県市原市","pref":"千葉県","name":"市原市","code":"12219","pop":269524,"lat":35.4979,"lon":140.1156,"did":1258,"airport":0,"high150":6,"night":417,"bvlos":1077,"drop":148,"hazmat":56,"low30":1287,"event":0,"high_risk":1511,"monitoring":1343,"moored":62,"assist_n":1513,"assist_sum":2582,"score_sum":7415,"total_all":1678,"total_valid":1622,"hokatsu":56},{"origin":"三重県多気郡明和町","pref":"三重県","name":"多気郡明和町","code":"24442","pop":22445,"lat":34.54753,"lon":136.62325,"did":1427,"airport":0,"high150":0,"night":381,"bvlos":187,"drop":1207,"hazmat":1174,"low30":1504,"event":0,"high_risk":1505,"monitoring":1530,"moored":0,"assist_n":1461,"assist_sum":11355,"score_sum":12637,"total_all":1574,"total_valid":1574,"hokatsu":0},{"origin":"兵庫県西宮市","pref":"兵庫県","name":"西宮市","code":"28204","pop":485587,"lat":34.73769,"lon":135.34183,"did":1131,"airport":165,"high150":1,"night":590,"bvlos":1145,"drop":30,"hazmat":5,"low30":1433,"event":0,"high_risk":1501,"monitoring":1392,"moored":32,"assist_n":1454,"assist_sum":1878,"score_sum":7767,"total_all":1827,"total_valid":1641,"hokatsu":186},{"origin":"福島県双葉郡双葉町","pref":"福島県","name":"双葉郡双葉町","code":"07546","pop":null,"lat":37.45366,"lon":140.99448,"did":1120,"airport":0,"high150":1051,"night":185,"bvlos":1336,"drop":153,"hazmat":0,"low30":1445,"event":0,"high_risk":1499,"monitoring":296,"moored":0,"assist_n":1537,"assist_sum":1767,"score_sum":9288,"total_all":1641,"total_valid":1549,"hokatsu":92},{"origin":"長崎県佐世保市","pref":"長崎県","name":"佐世保市","code":"42202","pop":243223,"lat":33.1799,"lon":129.71509,"did":1035,"airport":19,"high150":3,"night":630,"bvlos":859,"drop":370,"hazmat":79,"low30":1082,"event":0,"high_risk":1495,"monitoring":1929,"moored":3,"assist_n":2541,"assist_sum":5217,"score_sum":7540,"total_all":2871,"total_valid":2773,"hokatsu":98},{"origin":"愛知県蒲郡市","pref":"愛知県","name":"蒲郡市","code":"23214","pop":79538,"lat":34.82644,"lon":137.21965,"did":1371,"airport":0,"high150":0,"night":171,"bvlos":261,"drop":91,"hazmat":91,"low30":1472,"event":31,"high_risk":1493,"monitoring":1488,"moored":1,"assist_n":1622,"assist_sum":2453,"score_sum":5655,"total_all":1752,"total_valid":1750,"hokatsu":2},{"origin":"秋田県南秋田郡井川町","pref":"秋田県","name":"南秋田郡井川町","code":"05366","pop":4566,"lat":39.91419,"lon":140.08127,"did":1329,"airport":0,"high150":0,"night":6,"bvlos":14,"drop":1471,"hazmat":1348,"low30":1373,"event":0,"high_risk":1488,"monitoring":1487,"moored":0,"assist_n":1488,"assist_sum":3479,"score_sum":12528,"total_all":1488,"total_valid":1488,"hokatsu":0},{"origin":"愛知県北名古屋市","pref":"愛知県","name":"北名古屋市","code":"23234","pop":86385,"lat":35.24566,"lon":136.86597,"did":1478,"airport":1,"high150":0,"night":28,"bvlos":55,"drop":5,"hazmat":5,"low30":390,"event":0,"high_risk":1478,"monitoring":455,"moored":0,"assist_n":1416,"assist_sum":1435,"score_sum":3545,"total_all":1536,"total_valid":1534,"hokatsu":2},{"origin":"岡山県井原市","pref":"岡山県","name":"井原市","code":"33207","pop":38384,"lat":34.59771,"lon":133.46379,"did":1348,"airport":0,"high150":2,"night":1337,"bvlos":140,"drop":1312,"hazmat":1230,"low30":1474,"event":0,"high_risk":1475,"monitoring":1465,"moored":3,"assist_n":1485,"assist_sum":4929,"score_sum":14754,"total_all":1500,"total_valid":1499,"hokatsu":1},{"origin":"福島県いわき市","pref":"福島県","name":"いわき市","code":"07204","pop":332931,"lat":37.05046,"lon":140.88768,"did":1311,"airport":0,"high150":0,"night":635,"bvlos":558,"drop":259,"hazmat":263,"low30":1407,"event":4,"high_risk":1470,"monitoring":2471,"moored":0,"assist_n":2703,"assist_sum":3805,"score_sum":7985,"total_all":3264,"total_valid":2989,"hokatsu":275},{"origin":"宮崎県都城市","pref":"宮崎県","name":"都城市","code":"45202","pop":160640,"lat":31.71952,"lon":131.06149,"did":1231,"airport":0,"high150":33,"night":473,"bvlos":856,"drop":260,"hazmat":220,"low30":1327,"event":0,"high_risk":1464,"monitoring":5897,"moored":64,"assist_n":8911,"assist_sum":10206,"score_sum":7953,"total_all":9182,"total_valid":9069,"hokatsu":113},{"origin":"滋賀県甲賀市","pref":"滋賀県","name":"甲賀市","code":"25209","pop":88358,"lat":34.96612,"lon":136.16708,"did":450,"airport":0,"high150":9,"night":235,"bvlos":339,"drop":1023,"hazmat":384,"low30":1228,"event":0,"high_risk":1460,"monitoring":1317,"moored":5,"assist_n":1503,"assist_sum":6065,"score_sum":7515,"total_all":1604,"total_valid":1542,"hokatsu":62},{"origin":"岡山県岡山市東区","pref":"岡山県","name":"岡山市東区","code":"33103","pop":93108,"lat":34.65841,"lon":134.03635,"did":278,"airport":1,"high150":0,"night":901,"bvlos":1001,"drop":1140,"hazmat":1081,"low30":648,"event":0,"high_risk":1451,"monitoring":1508,"moored":0,"assist_n":1599,"assist_sum":5317,"score_sum":11674,"total_all":1739,"total_valid":1669,"hokatsu":70},{"origin":"北海道上川郡当麻町","pref":"北海道","name":"上川郡当麻町","code":"01454","pop":6319,"lat":43.8282,"lon":142.50839,"did":10,"airport":0,"high150":2,"night":4,"bvlos":8,"drop":1439,"hazmat":1437,"low30":1305,"event":0,"high_risk":1449,"monitoring":1440,"moored":0,"assist_n":1452,"assist_sum":12214,"score_sum":9981,"total_all":1453,"total_valid":1453,"hokatsu":0},{"origin":"千葉県君津市","pref":"千葉県","name":"君津市","code":"12225","pop":82206,"lat":35.33043,"lon":139.90256,"did":669,"airport":1,"high150":4,"night":927,"bvlos":1084,"drop":72,"hazmat":64,"low30":1228,"event":0,"high_risk":1437,"monitoring":2276,"moored":1,"assist_n":1776,"assist_sum":5655,"score_sum":7007,"total_all":2748,"total_valid":2540,"hokatsu":208},{"origin":"東京都港区","pref":"東京都","name":"港区","code":"13103","pop":260486,"lat":35.65807,"lon":139.7516,"did":1430,"airport":42,"high150":34,"night":953,"bvlos":956,"drop":0,"hazmat":0,"low30":1241,"event":91,"high_risk":1434,"monitoring":1300,"moored":12,"assist_n":1330,"assist_sum":4307,"score_sum":8204,"total_all":1536,"total_valid":1439,"hokatsu":97},{"origin":"愛媛県宇和島市","pref":"愛媛県","name":"宇和島市","code":"38203","pop":70809,"lat":33.22334,"lon":132.56056,"did":743,"airport":0,"high150":9,"night":178,"bvlos":529,"drop":661,"hazmat":599,"low30":1360,"event":6,"high_risk":1433,"monitoring":1287,"moored":12,"assist_n":1541,"assist_sum":2219,"score_sum":8064,"total_all":1738,"total_valid":1579,"hokatsu":159},{"origin":"北海道雨竜郡秩父別町","pref":"北海道","name":"雨竜郡秩父別町","code":"01434","pop":2329,"lat":43.767,"lon":141.9579,"did":42,"airport":0,"high150":0,"night":2,"bvlos":43,"drop":1388,"hazmat":1365,"low30":368,"event":0,"high_risk":1433,"monitoring":1289,"moored":0,"assist_n":1521,"assist_sum":3370,"score_sum":8801,"total_all":1529,"total_valid":1529,"hokatsu":0},{"origin":"北海道帯広市","pref":"北海道","name":"帯広市","code":"01207","pop":166536,"lat":42.92402,"lon":143.1962,"did":596,"airport":25,"high150":0,"night":270,"bvlos":564,"drop":776,"hazmat":734,"low30":777,"event":0,"high_risk":1413,"monitoring":1281,"moored":0,"assist_n":1517,"assist_sum":2733,"score_sum":8242,"total_all":1534,"total_valid":1528,"hokatsu":6},